City_ID,City,Lat,Lng,Max Temp,Humidity,Cloudiness,Wind Speed,Country,Date
0,georgetown,5.4112,100.3354,80.53,73,20,2.3,MY,1741044533
1,waitangi,-43.9535,-176.5597,64.81,97,100,5.01,NZ,1741044537
2,isafjordur,66.0755,-23.124,27.61,93,100,18.1,IS,1741044541
3,aksay,47.26,39.87,26.82,86,54,6.55,RU,1741044545
4,grytviken,-54.2811,-36.5092,46.38,97,100,10.29,GS,1741044549
5,punta arenas,-53.15,-70.9167,48.31,71,40,23.02,CL,1741044294
6,tabou,4.423,-7.3528,79.93,87,99,8.03,CI,1741044558
7,vaasa,63.096,21.6158,37.42,73,0,20.0,FI,1741044562
8,adamstown,-25.066,-130.1015,77.99,70,1,13.8,PN,1741044566
9,avarua,-21.2078,-159.775,84.25,74,75,6.91,CK,1741044570
10,uyar,55.81,94.3153,10.89,95,99,3.6,RU,1741044574
11,arraial do cabo,-22.9661,-42.0278,78.17,85,0,17.43,BR,1741044578
12,ushuaia,-54.8,-68.3,49.66,57,75,8.05,AR,1741044582
13,ola,59.5833,151.2833,-4.81,96,100,13.53,RU,1741044586
14,bethel,41.3712,-73.414,32.94,46,29,1.39,US,1741044521
15,hawaiian paradise park,19.5933,-154.9731,80.73,66,20,11.5,US,1741044595
16,puerto ayora,-0.7393,-90.3518,80.55,95,95,5.01,EC,1741044599
17,port-aux-francais,-49.35,70.2167,41.16,78,93,27.4,TF,1741044603
18,whitehorse,60.7161,-135.0538,36.37,64,75,9.22,CA,1741044608
19,puerto baquerizo moreno,-0.9,-89.6,79.57,76,87,3.89,EC,1741044612
20,qaqortoq,60.7167,-46.0333,-9.49,78,12,5.35,GL,1741044616
21,sur,22.5667,59.5289,70.18,40,0,14.38,OM,1741044620
22,mugia,43.1041,-9.2179,52.92,83,0,14.92,ES,1741044624
23,puerto natales,-51.7236,-72.4875,40.64,96,82,5.68,CL,1741044628
24,vrangel',42.7297,133.0839,22.21,38,70,4.92,RU,1741044632
25,papatowai,-46.5619,169.4708,59.52,61,39,10.38,NZ,1741044636
26,ribeira grande,38.5167,-28.7,55.78,86,35,4.0,PT,1741044641
27,kapa'a,22.0752,-159.319,82.72,67,20,18.41,US,1741044645
28,clarksville,36.5298,-87.3595,62.85,20,0,9.22,US,1741044606
29,al khawr,25.7667,51.3167,55.26,67,59,7.38,QA,1741044653
30,mirabela,-16.2628,-44.1644,72.14,52,21,7.38,BR,1741044657
31,port alfred,-33.5906,26.891,72.18,94,44,12.48,ZA,1741044662
32,bredasdorp,-34.5322,20.0403,71.15,82,6,6.2,ZA,1741044670
33,invercargill,-46.4,168.35,61.02,63,54,8.99,NZ,1741044619
34,queenstown,-31.8976,26.8753,64.98,72,61,2.17,ZA,1741044678
35,yellowknife,62.456,-114.3525,21.72,68,40,6.91,CA,1741044686
36,saipan,15.1355,145.701,84.9,65,20,21.85,MP,1741044691
37,hermanus,-34.4187,19.2345,70.81,93,23,6.02,ZA,1741044515
38,luderitz,-26.6481,15.1594,62.15,93,0,8.21,NA,1741044699
39,ad dabbah,18.05,30.95,68.23,14,87,9.64,SD,1741044703
40,wattens,47.2722,11.5993,32.63,77,96,3.44,AT,1741044707
41,albany,42.6001,-73.9662,27.01,57,71,2.89,US,1741044715
42,east london,-33.0153,27.9116,75.27,88,56,15.17,ZA,1741044719
43,olonkinbyen,70.9221,-8.7187,28.33,91,100,7.11,SJ,1741044723
44,quellon,-43.1167,-73.6167,56.95,70,58,10.31,CL,1741044728
45,nortelandia,-14.4547,-56.8028,72.79,95,83,0.63,BR,1741044732
46,hamilton,39.1834,-84.5333,46.94,35,73,3.0,US,1741044721
47,magway,20.15,94.9167,72.63,44,15,0.29,MM,1741044740
48,merizo village,13.2658,144.6691,82.98,84,44,19.35,GU,1741044744
49,west island,-12.1568,96.8225,82.38,83,40,17.27,CC,1741044748
50,blackmans bay,-43.0167,147.3167,65.52,65,59,6.42,AU,1741044752
51,akureyri,65.6835,-18.0878,31.93,86,100,5.75,IS,1741044756
52,bilibino,68.0546,166.4372,-20.6,94,15,0.2,RU,1741044760
53,kodiak,57.79,-152.4072,38.71,100,100,13.8,US,1741044765
54,george town,5.4112,100.3354,80.53,73,20,2.3,MY,1741044686
55,lihue,21.9789,-159.3672,81.99,61,20,18.41,US,1741044773
56,port sudan,19.6175,37.2164,72.45,72,100,6.15,SD,1741044777
57,balykshi,47.0667,51.8667,14.0,85,40,8.95,KZ,1741044781
58,iqaluit,63.7506,-68.5145,-15.07,64,75,13.8,CA,1741044559
59,katsuura,35.1333,140.3,46.13,63,100,19.98,JP,1741044789
60,talcahuano,-36.7167,-73.1167,64.08,77,0,11.5,CL,1741044518
61,thompson,55.7435,-97.8558,21.36,79,100,8.05,CA,1741044797
62,stanley,54.868,-1.6985,43.52,90,40,5.75,GB,1741044806
63,nizhnevartovsk,60.9344,76.5531,21.22,93,100,4.47,RU,1741044810
64,glendive,47.1053,-104.7125,47.82,66,40,18.41,US,1741044814
65,backa topola,45.8152,19.6318,39.58,64,0,2.53,RS,1741044818
66,kavaratti,10.5669,72.642,82.54,73,73,4.52,IN,1741044826
67,xining,36.6167,101.7667,26.73,63,0,3.11,CN,1741044665
68,hastings,50.8552,0.5729,36.99,72,4,6.29,GB,1741044835
69,san luis de la loma,17.2706,-100.8939,81.12,61,93,9.95,MX,1741044839
70,sault ste. marie,46.5168,-84.3333,37.69,48,0,10.36,CA,1741044843
71,pointe aux piments,-20.0628,57.5131,79.52,87,5,10.94,MU,1741044847
72,tazacorte,28.629,-17.9293,59.97,88,20,9.22,ES,1741044851
73,neiafu,-18.65,-173.9833,77.68,100,100,6.91,TO,1741044855
74,praia da vitoria,38.7333,-27.0667,55.65,88,20,4.41,PT,1741044859
75,tolanaro,-25.0319,46.9987,76.53,93,93,7.4,MG,1741044863
76,dudinka,69.4058,86.1778,-16.13,93,84,4.83,RU,1741044867
77,tokar,18.4254,37.729,72.23,77,80,6.53,SD,1741044872
78,fort-shevchenko,44.5086,50.263,29.59,96,100,11.54,KZ,1741044876
79,edinburgh of the seven seas,-37.0676,-12.3116,56.82,71,62,27.76,SH,1741044880
80,port elizabeth,-33.918,25.5701,73.31,97,0,4.61,ZA,1741044884
81,yanam,16.7333,82.2167,69.58,97,36,1.59,IN,1741044892
82,coahuayana de hidalgo,18.7,-103.6583,79.03,61,87,5.01,MX,1741044896
83,kokoda,-8.8785,147.7407,78.08,94,100,4.54,PG,1741044900
84,awjilah,29.1081,21.2869,59.58,37,0,8.52,LY,1741044905
85,yeppoon,-23.1333,150.7333,81.84,68,0,7.85,AU,1741044909
86,kodinsk,58.6881,99.1844,9.16,98,96,2.71,RU,1741044913
87,wailua homesteads,22.0669,-159.378,81.39,67,20,18.41,US,1741044917
88,newman,37.3138,-121.0208,64.06,50,32,4.0,US,1741044921
89,erenhot,43.6475,111.9767,27.99,85,93,6.91,CN,1741044925
90,tindouf,27.6711,-8.1474,63.05,42,1,25.32,DZ,1741044929
91,egilsstadir,65.2653,-14.3948,31.91,93,100,2.3,IS,1741044933
92,freetown,8.484,-13.2299,82.11,74,40,9.22,SL,1741044938
93,bezopasnoye,45.6483,41.936,30.34,94,94,9.75,RU,1741044942
94,les anglais,18.3054,-74.2197,74.14,82,82,2.33,HT,1741044946
95,saint-pierre,-21.3393,55.4781,80.28,74,20,5.75,RE,1741044950
96,port mathurin,-19.6833,63.4167,81.05,75,24,14.05,MU,1741044954
97,ha'il,27.5219,41.6907,57.22,23,0,4.61,SA,1741044958
98,anadyr,64.75,177.4833,-14.3,75,20,15.01,RU,1741044962
99,uturoa,-16.7333,-151.4333,82.35,73,84,4.52,PF,1741044966
100,carnarvon,-24.8667,113.6333,79.41,66,92,27.29,AU,1741044970
101,magadan,59.5667,150.8,-3.87,94,99,9.69,RU,1741044975
102,klyuchi,52.2667,79.1667,9.46,97,100,5.1,RU,1741044979
103,st. john's,47.5649,-52.7093,24.98,70,100,6.91,CA,1741044943
104,alice town,25.7167,-79.3,72.57,67,75,17.4,BS,1741044987
105,badger,64.8,-147.5333,35.47,55,40,3.44,US,1741044991
106,colonia,50.9333,6.95,36.97,77,98,2.24,DE,1741044911
107,udachny,66.4167,112.4,-45.09,100,86,2.24,RU,1741045000
108,katsuren-haebaru,26.3369,127.8719,74.08,88,75,12.66,JP,1741045004
109,aswan,24.0934,32.907,65.77,20,70,10.71,EG,1741045009
110,lashio,22.9333,97.75,56.26,57,30,0.94,MM,1741045013
111,kailua-kona,19.6406,-155.9956,82.56,71,20,12.66,US,1741044920
112,imbituba,-28.24,-48.6703,73.81,89,1,14.18,BR,1741045021
113,vadso,70.0744,29.7487,32.16,86,75,9.22,NO,1741045025
114,zizur mayor,42.7879,-1.6907,46.45,100,75,2.3,ES,1741045029
115,mogocha,53.7333,119.7667,-2.47,95,27,1.34,RU,1741045034
116,candelaria,13.9311,121.4233,77.67,87,82,6.4,PH,1741045038
117,coquimbo,-29.9533,-71.3436,65.93,82,0,9.22,CL,1741045042
118,mocimboa,-11.3167,40.35,73.2,98,95,2.55,MZ,1741045046
119,port saint john's,-31.6229,29.5448,74.1,89,65,11.63,ZA,1741044843
120,tiksi,71.6872,128.8694,-29.36,100,46,1.83,RU,1741045054
121,bandarbeyla,9.4942,50.8122,76.57,75,8,14.5,SO,1741045059
122,nuku'alofa,-21.1333,-175.2,84.54,79,20,18.41,TO,1741045063
123,wewak,-3.5534,143.6268,82.81,82,46,7.23,PG,1741045067
124,jamestown,42.097,-79.2353,33.44,47,0,9.22,US,1741044848
125,gadzhiyevo,69.2551,33.3362,27.36,91,100,11.34,RU,1741045075
126,joshimath,30.5667,79.5667,35.62,93,97,0.51,IN,1741045079
127,dadhar,29.4753,67.6514,56.46,14,0,8.43,PK,1741045083
128,lompoc,34.6391,-120.4579,58.51,65,0,26.46,US,1741045088
129,vorgashor,67.5833,63.95,15.64,96,100,8.88,RU,1741045092
130,college,64.8569,-147.8028,40.98,55,40,5.75,US,1741045096
131,cidreira,-30.1811,-50.2056,77.02,87,0,16.67,BR,1741044935
132,tamanrasset,22.785,5.5228,62.51,11,0,3.44,DZ,1741045104
133,waingapu,-9.6567,120.2641,82.56,79,15,7.25,ID,1741045108
134,porto empedocle,37.2934,13.5264,54.25,86,85,4.63,IT,1741045112
135,kerikeri,-35.2268,173.9474,72.23,52,100,2.01,NZ,1741045116
136,nova vicosa,-17.8919,-39.3719,77.09,87,2,8.05,BR,1741045120
137,pangoa,-12.1167,-73.0,69.69,99,100,2.04,PE,1741045125
138,mossel bay,-34.1831,22.146,75.06,69,24,2.77,ZA,1741045129
139,amahai,-3.3333,128.9167,81.21,80,92,1.39,ID,1741045133
140,krasnoarmeyskoye,52.7182,50.0322,22.68,95,100,10.16,RU,1741045137
141,filingue,14.3521,3.3168,82.35,16,45,9.26,NE,1741045141
142,oranjemund,-28.55,16.4333,64.74,84,88,5.35,NA,1741045145
143,mana,5.6592,-53.7767,76.96,85,27,8.7,GF,1741045154
144,hasaki,35.7333,140.8333,44.6,57,97,19.22,JP,1741045158
145,margaret river,-33.95,115.0667,64.35,51,54,11.77,AU,1741045162
146,vila franca do campo,37.7167,-25.4333,55.81,82,7,5.7,PT,1741045166
147,kapuskasing,49.4169,-82.4331,30.29,93,75,5.75,CA,1741045086
148,mek'ele,13.4967,39.4753,62.98,41,70,2.84,ET,1741045178
149,ta`u,-14.2336,-169.5144,82.42,76,100,13.51,AS,1741045182
150,saint croix,17.7397,-64.7388,77.45,84,0,4.61,VI,1741045105
151,lebu,-37.6167,-73.65,58.91,87,13,1.72,CL,1741045191
152,manavalakurichi,8.1333,77.3,75.85,92,92,4.45,IN,1741045195
153,yuzhno-kurilsk,44.0306,145.8556,21.61,67,83,7.7,RU,1741045199
154,tamale,9.4008,-0.8393,92.88,25,57,1.97,GH,1741045203
155,radhanpur,23.8333,71.6,70.7,35,79,14.63,IN,1741045211
156,afaahiti,-17.75,-149.2833,81.1,74,85,2.44,PF,1741045215
157,tagiura,32.8817,13.3506,59.04,80,2,10.07,LY,1741045219
158,talnakh,69.4865,88.3972,-22.63,82,96,9.04,RU,1741045224
159,enewetak,11.3474,162.3373,80.37,74,10,19.28,MH,1741045228
160,hithadhoo,-0.6,73.0833,82.49,76,98,9.66,MV,1741045232
161,zaraza,9.3503,-65.3245,78.62,65,18,10.78,VE,1741045236
162,corner brook,48.9667,-57.9484,8.73,86,94,5.95,CA,1741045240
163,hammerfest,70.6634,23.6821,30.65,100,75,5.75,NO,1741045244
164,dhidhdhoo,6.8833,73.1,82.58,75,94,9.33,MV,1741045248
165,sitka,57.0531,-135.33,46.29,76,40,0.0,US,1741045252
166,nola,40.922,14.5329,48.02,71,0,4.29,IT,1741045005
167,yilan,24.757,121.753,70.81,86,100,5.61,TW,1741045261
168,barra de santo antonio,-9.4047,-35.5072,79.43,74,6,10.45,BR,1741045265
169,filipstad,59.7124,14.1683,38.64,83,100,14.58,SE,1741045269
170,itamaraca,-7.7478,-34.8256,78.66,83,17,10.49,BR,1741045273
171,ust-nera,64.5667,143.2,-13.31,99,100,5.97,RU,1741045277
172,aral,40.5156,81.2636,37.85,56,100,1.86,CN,1741045281
173,kyabe,9.4515,18.9449,87.04,17,39,7.58,TD,1741045285
174,fale old settlement,-9.3852,-171.2468,83.14,69,16,12.19,TK,1741045289
175,choix,26.7092,-108.3219,81.9,15,97,12.24,MX,1741045293
176,princeville,45.7668,-61.2985,15.51,80,75,8.05,CA,1741045280
177,mutuali,-14.8706,37.0044,69.17,85,100,1.83,MZ,1741045303
178,hailar,49.2,119.7,2.59,91,98,3.83,CN,1741045307
179,boulsa,12.6675,-0.5758,85.55,17,17,5.93,BF,1741045311
180,fort st. john,56.2499,-120.8529,40.89,56,40,3.44,CA,1741045108
181,chortkiv,49.0171,25.798,35.33,81,10,14.85,UA,1741045319
182,petropavlovsk-kamchatsky,53.0452,158.6483,23.59,50,75,2.24,RU,1741045324
183,khandyga,62.6667,135.6,-17.64,94,100,0.31,RU,1741045328
184,warin chamrap,15.1932,104.8628,80.42,74,45,5.75,TH,1741045332
185,sungai penuh,-2.0833,101.3833,66.54,98,99,1.14,ID,1741045336
186,papao,-17.75,-149.55,89.28,73,89,8.77,PF,1741045340
187,campbellton,48.0075,-66.6727,9.05,97,81,4.18,CA,1741045345
188,nagqu,31.5,92.0,18.18,25,0,4.07,CN,1741045349
189,aasiaat,68.7098,-52.8699,-4.95,97,61,7.36,GL,1741045353
190,susuman,62.7833,148.1667,-14.85,89,100,3.31,RU,1741045357
191,kaoma,-14.7833,24.8,64.96,95,100,2.66,ZM,1741045361
192,portland,45.5234,-122.6762,54.05,76,100,15.01,US,1741045125
193,kuanda,56.3161,116.0806,-5.51,98,99,1.25,RU,1741045369
194,san patricio,28.017,-97.5169,76.95,76,96,18.41,US,1741045374
195,sabang,5.8933,95.3214,81.99,76,62,3.11,ID,1741045378
196,guarapari,-20.6667,-40.4975,75.31,85,7,3.62,BR,1741045382
197,bedburg,50.9926,6.5713,36.88,84,40,0.0,DE,1741045386
198,namibe,-15.1961,12.1522,72.9,83,81,5.14,AO,1741045390
199,nabire,-3.3667,135.4833,82.56,74,95,2.01,ID,1741045394
200,iskateley,67.6803,53.1512,24.13,95,100,14.25,RU,1741045398
201,moyobamba,-6.05,-76.9667,67.44,98,91,0.74,PE,1741045407
202,el calafate,-50.3408,-72.2768,47.89,67,46,8.46,AR,1741045411
203,porto novo,6.4965,2.6036,82.09,84,35,10.89,BJ,1741045193
204,la passe,45.5549,-0.8967,45.39,80,65,8.34,FR,1741045419
205,tuburan,6.6439,122.2736,81.55,76,92,2.62,PH,1741045423
206,atafu village,-8.5421,-172.5159,83.5,68,11,11.72,TK,1741045427
207,aldan,58.6031,125.3894,-11.97,97,99,3.8,RU,1741045432
208,san clemente del tuyu,-36.3569,-56.7235,72.84,90,100,3.29,AR,1741045436
209,eenhana,-17.4667,16.3333,68.22,85,100,3.09,NA,1741045440
210,bulayevo,54.9056,70.4439,15.42,91,100,8.32,KZ,1741045449
211,qamdo,31.1667,97.2333,23.97,59,54,7.25,CN,1741045453
212,severo-yeniseyskiy,60.3725,93.0408,9.14,97,98,3.96,RU,1741045457
213,fereydunshahr,32.941,50.121,14.88,32,93,5.75,IR,1741045461
214,belo sur tsiribihina,-19.7,44.55,74.01,95,99,3.4,MG,1741045465
215,fortuna,40.5982,-124.1573,52.93,84,40,10.36,US,1741045469
216,rongelap,11.1635,166.8941,80.46,77,28,19.08,MH,1741045473
217,porto velho,-8.7619,-63.9039,77.05,94,75,3.44,BR,1741045277
218,yemetsk,63.4721,41.7941,25.34,93,100,10.74,RU,1741045482
219,ongjin,37.9347,125.3619,33.84,61,100,19.1,KP,1741045486
220,labytnangi,66.6572,66.4183,-9.71,100,100,2.82,RU,1741045490
221,sisimiut,66.9395,-53.6735,-10.08,96,23,2.53,GL,1741045494
222,beykonak,36.3257,30.303,57.04,69,83,6.71,TR,1741045499
223,peniche,39.3558,-9.3811,53.11,91,46,7.81,PT,1741045504
224,raseiniai,55.3736,23.1217,39.79,80,95,21.03,LT,1741045508
225,amungan,15.3652,119.9582,84.07,59,93,2.01,PH,1741045512
226,san juan de uraba,8.7592,-76.5297,79.54,78,64,8.05,CO,1741045517
227,kaspiysk,42.8816,47.6392,35.78,75,100,22.37,RU,1741045521
228,christchurch,-43.5333,172.6333,57.94,84,100,5.75,NZ,1741045526
229,nossa senhora das dores,-10.4917,-37.1933,74.3,83,14,4.03,BR,1741045530
230,masjed soleyman,31.9364,49.3039,55.67,29,91,2.66,IR,1741045534
231,wang nam yen,13.5033,102.1812,76.78,90,88,3.8,TH,1741045538
232,longyearbyen,78.2186,15.6401,19.24,68,40,24.16,SJ,1741045542
233,la sarre,48.8002,-79.1996,27.64,96,100,8.81,CA,1741045547
234,polyarnyy,69.1989,33.4478,27.52,89,100,12.21,RU,1741045551
235,tura,25.5198,90.2201,61.56,36,0,2.24,IN,1741045555
236,soba,10.9813,8.0575,74.53,21,14,7.11,NG,1741045559
237,sinabang,2.4803,96.3801,78.8,82,83,2.24,ID,1741045563
238,farafangana,-22.8167,47.8333,78.93,82,99,3.36,MG,1741045567
239,keflavik,64.0049,-22.5624,43.23,100,100,24.16,IS,1741045571
240,hobyo,5.3505,48.5268,77.95,81,27,14.65,SO,1741045575
241,guymon,36.6828,-101.4816,68.56,11,49,35.5,US,1741045580
242,utrik,11.2278,169.8474,80.47,78,8,21.43,MH,1741045584
243,taulaga,-11.0553,-171.0883,83.5,71,70,12.08,AS,1741045588
244,ambilobe,-13.2,49.05,74.79,97,47,2.42,MG,1741045592
245,dunedin,-45.8742,170.5036,62.8,53,47,7.0,NZ,1741045533
246,gerash,27.6652,54.1371,50.23,16,23,4.03,IR,1741045601
247,happy valley-goose bay,53.3168,-60.3315,-0.09,65,75,4.61,CA,1741045605
248,tralee,52.2704,-9.7026,38.95,93,70,4.74,IE,1741045434
249,fuerte olimpo,-21.0415,-57.8738,78.85,57,75,3.94,PY,1741045613
250,oum hadjer,13.2954,19.6966,81.05,15,4,11.03,TD,1741045617
251,kidal,18.4411,1.4078,82.67,10,100,11.34,ML,1741045621
252,acapulco de juarez,16.8634,-99.8901,84.02,65,40,10.36,MX,1741045571
253,okhotsk,59.3833,143.3,-8.32,76,2,17.76,RU,1741045630
254,kiunga,-6.1219,141.2906,83.88,72,66,3.04,PG,1741045638
255,nova sintra,14.8667,-24.7167,69.94,69,99,24.07,CV,1741045642
256,cadale,2.7603,46.3222,78.24,81,69,13.06,SO,1741045646
257,vilyuchinsk,52.9306,158.4028,25.07,79,99,10.2,RU,1741045650
258,holualoa,19.6228,-155.9522,78.64,74,20,12.66,US,1741045654
259,bhimunipatnam,17.8833,83.4333,78.31,75,10,4.68,IN,1741045612
260,kirakira,-10.4544,161.9205,84.47,72,98,5.66,SB,1741045671
261,codrington,-38.2667,141.9667,71.67,42,0,11.27,AU,1741045675
262,omutninsk,58.67,52.1932,21.56,96,100,6.38,RU,1741045679
263,usinsk,65.9939,57.5281,19.35,93,100,14.76,RU,1741045683
264,irbit,57.6705,63.071,9.21,95,97,3.71,RU,1741045687
265,baharly,38.4362,57.4316,37.51,38,19,8.84,TM,1741045692
266,chonchi,-42.6128,-73.8092,59.13,75,41,7.38,CL,1741045696
267,brasileia,-11.0161,-68.7481,82.85,78,75,5.75,BR,1741045700
268,binjai,3.6001,98.4854,78.75,96,71,2.08,ID,1741045704
269,ambon,-3.6954,128.1814,85.23,100,40,2.3,ID,1741045708
270,vernon,50.2581,-119.2691,51.33,43,94,2.3,CA,1741045434
271,nyurba,63.2842,118.3319,-48.06,100,73,2.39,RU,1741045716
272,puerto deseado,-47.7503,-65.8938,65.86,28,3,22.91,AR,1741045720
273,porto seguro,-16.4497,-39.0647,81.12,78,40,9.22,BR,1741045617
274,craig,40.5153,-107.5464,39.15,65,0,10.36,US,1741045729
275,san antonio de pale,-1.4014,5.6325,81.63,73,98,2.06,GQ,1741045733
276,asau,46.4333,26.4,31.3,81,7,5.86,RO,1741045738
277,port lincoln,-34.7333,135.8667,73.92,59,0,9.42,AU,1741045742
278,antofagasta,-23.65,-70.4,67.28,85,21,6.04,CL,1741045542
279,seme,15.1942,-12.9448,77.32,28,100,6.46,SN,1741045751
280,hudiksvall,61.729,17.1036,36.09,83,66,9.22,SE,1741045755
281,floro,61.5996,5.0328,44.56,81,100,19.57,NO,1741045759
282,vanino,49.0869,140.2543,5.65,70,1,6.46,RU,1741045764
283,bokovskaya,49.229,41.8306,27.48,92,99,12.39,RU,1741045768
284,mowad,21.4667,78.4333,72.57,27,88,2.51,IN,1741045772
285,la ronge,55.1001,-105.2842,26.85,63,75,16.11,CA,1741045776
286,sikasso,10.9167,-7.0,89.2,35,83,2.21,ML,1741045780
287,lupane,-18.9315,27.807,64.67,85,88,5.12,ZW,1741045784
288,aykhal,66.0,111.5,-35.63,99,17,2.86,RU,1741045789
289,mount gambier,-37.8333,140.7667,73.42,28,0,5.39,AU,1741045793
290,arinos,-15.9169,-46.1056,74.91,62,86,1.36,BR,1741045797
291,torghay,49.6339,63.4981,-5.55,100,53,9.04,KZ,1741045801
292,haiku-pauwela,20.9219,-156.3051,82.17,64,20,27.63,US,1741045805
293,ivesti,45.6833,27.5167,37.15,75,8,0.13,RO,1741045809
294,angaur state,6.906,134.13,82.63,83,100,19.62,PW,1741045813
295,primorskiy,43.0983,131.5875,18.01,37,91,7.7,RU,1741045817
296,tocopilla,-22.092,-70.1979,71.51,79,48,11.61,CL,1741045821
297,turkmenbasy,40.0222,52.9552,34.57,69,0,6.91,TM,1741045825
298,villa gesell,-37.2639,-56.973,71.96,92,85,7.83,AR,1741045797
299,ravar,31.2656,56.8055,41.58,32,14,4.79,IR,1741045834
300,iquique,-20.2208,-70.1431,70.23,82,100,2.84,CL,1741045778
301,puerto el triunfo,13.2833,-88.55,83.17,68,0,9.37,SV,1741045842
302,selfoss,63.9331,-20.9971,40.05,98,100,17.11,IS,1741045846
303,wamba,8.9333,8.6,79.63,20,98,4.45,NG,1741045850
304,sovetskaya gavan',48.9723,140.2878,8.24,67,2,6.64,RU,1741045855
305,lethem,3.3803,-59.7968,89.11,42,62,12.08,GY,1741045859
306,igoumenitsa,39.5039,20.2656,45.39,72,8,7.76,GR,1741045863
307,taltal,-25.4,-70.4833,67.77,80,21,4.72,CL,1741045868
308,taman',45.2117,36.7161,34.99,75,58,8.43,RU,1741045872
309,la rinconada,37.4873,-5.9826,55.44,92,0,4.61,ES,1741045880
310,north bend,43.4065,-124.2243,52.27,81,100,11.5,US,1741045885
311,kuqa,41.7278,82.9364,37.08,60,100,2.77,CN,1741045889
312,xudat,41.631,48.681,36.7,70,100,10.22,AZ,1741045893
313,minas de marcona,-15.2119,-75.1103,65.73,76,8,14.85,PE,1741045897
314,motueka,-41.1333,173.0167,70.11,56,84,1.39,NZ,1741045901
315,sao joao da barra,-21.6403,-41.0511,77.36,84,0,10.4,BR,1741045905
316,kununurra,-15.7667,128.7333,91.38,66,8,3.44,AU,1741045910
317,viana do castelo,41.6932,-8.8329,52.93,76,97,5.46,PT,1741045918
318,puerto madero,14.7208,-92.4215,82.76,69,2,11.61,MX,1741045922
319,puerto penasco,31.3167,-113.5333,63.91,53,29,8.99,MX,1741045926
320,pitimbu,-7.4706,-34.8086,79.68,80,21,11.32,BR,1741045930
321,ascension,30.2169,-90.9001,68.05,70,82,4.0,US,1741045934
322,aktau,43.65,51.2,28.98,84,100,16.67,KZ,1741045938
323,carauari,-4.8828,-66.8958,74.61,97,100,2.3,BR,1741045942
324,nikolayevsk-on-amure,53.1406,140.73,-1.41,81,53,9.57,RU,1741045947
325,dapa,9.7594,126.0531,80.19,83,71,9.44,PH,1741045951
326,babu,24.4167,111.5167,53.2,91,100,7.96,CN,1741045959
327,ilulissat,69.2167,-51.1,-19.77,98,64,8.34,GL,1741045963
328,volda,62.1476,6.0741,44.53,75,100,9.22,NO,1741045967
329,howard springs,-12.497,131.047,88.99,86,77,2.68,AU,1741045971
330,chui,-33.6971,-53.4616,75.65,93,67,7.72,UY,1741045975
331,the pas,53.8251,-101.2541,24.82,74,100,11.5,CA,1741045926
332,yazd,31.8972,54.3675,42.91,22,0,6.91,IR,1741045984
333,banganapalle,15.3167,78.2333,78.08,43,100,1.81,IN,1741045992
334,berea,41.3662,-81.8543,36.72,55,100,9.22,US,1741045996
335,tan-tan,28.438,-11.1032,59.05,86,20,5.14,MA,1741046000
336,margate,51.3813,1.3862,40.44,73,34,0.69,GB,1741046004
337,constantia,44.1833,28.65,36.7,76,8,7.05,RO,1741046008
338,nanao,37.05,136.9667,36.3,75,100,18.21,JP,1741046012
339,fort bragg,35.139,-79.006,56.93,30,0,3.44,US,1741046021
340,kindu,-2.95,25.95,70.79,99,100,2.06,CD,1741046025
341,gaspe,48.8334,-64.4819,8.82,61,20,8.05,CA,1741046029
342,araripina,-7.5761,-40.4983,75.88,60,59,8.61,BR,1741046033
343,progreso,21.2833,-89.6667,75.87,80,0,15.08,MX,1741046037
344,isna,25.2934,32.554,63.64,23,51,7.9,EG,1741046041
345,terbuny,52.1389,38.2789,32.22,98,100,15.99,RU,1741046045
346,allapalli,19.4167,80.0667,70.14,31,46,1.81,IN,1741046049
347,iaciara,-14.0958,-46.6317,77.45,52,80,2.91,BR,1741046053
348,usogorsk,63.4106,48.6872,21.36,95,100,7.99,RU,1741046058
349,urengoy,65.9667,78.3667,-8.23,100,100,4.76,RU,1741046062
350,marksville,31.128,-92.0662,63.86,80,99,10.29,US,1741046066
351,date,42.4681,140.8681,27.34,52,52,6.06,JP,1741046074
352,iwanai,42.9744,140.5089,28.2,50,98,7.67,JP,1741046078
353,bamboo flat,11.7,92.7167,71.69,94,87,2.3,IN,1741046082
354,antsiranana,-12.2787,49.2917,76.17,92,28,3.42,MG,1741046086
355,tierp,60.3427,17.5181,40.96,71,100,13.15,SE,1741046091
356,anse royale,-4.7333,55.5167,81.18,78,20,6.91,SC,1741046095
357,manaure,11.7751,-72.4445,79.57,72,98,21.59,CO,1741046099
358,opuwo,-18.0607,13.84,68.23,58,96,4.81,NA,1741046103
359,richards bay,-28.783,32.0377,71.28,90,6,5.46,ZA,1741046107
360,codajas,-3.8367,-62.0569,77.41,88,100,2.64,BR,1741046111
361,maroua,10.591,14.3159,83.35,17,81,8.05,CM,1741046115
362,nuriootpa,-34.4833,139.0,76.93,19,0,10.6,AU,1741046119
363,weyburn,49.6668,-103.8511,34.02,86,100,14.97,CA,1741046123
364,alotau,-10.3069,150.4462,79.18,85,100,3.2,PG,1741046127
365,ust'-ilimsk,58.0006,102.6619,5.4,99,95,4.65,RU,1741045947
366,pointe-noire,-4.7761,11.8635,79.63,89,92,5.28,CG,1741046136
367,touros,-5.1989,-35.4608,80.73,78,20,13.89,BR,1741046140
368,jiayuguan,39.8167,98.3,27.97,65,3,5.48,CN,1741046144
369,nantucket,41.2835,-70.0995,23.14,50,0,8.05,US,1741046148
370,karratha,-20.7377,116.8463,90.25,64,73,17.07,AU,1741046156
371,veraval,20.9,70.3667,73.53,63,100,14.12,IN,1741046160
372,trondheim,63.4305,10.3951,37.45,86,100,8.01,NO,1741046064
373,port douglas,-16.4833,145.4667,82.54,64,38,3.22,AU,1741046169
374,kutum,14.2,24.6667,68.25,14,39,4.72,SD,1741046173
375,chernyshevsk,52.5243,117.0174,-9.29,100,82,0.58,RU,1741046177
376,mejit,10.2753,170.8646,80.58,76,40,23.42,MH,1741046181
377,ironwood,46.4547,-90.171,50.81,30,0,4.61,US,1741046183
378,bakaly,55.1789,53.8028,19.17,94,100,9.04,RU,1741046189
379,khamharia,20.9833,82.2667,65.39,36,3,1.3,IN,1741046193
380,saudarkrokur,65.7461,-19.6394,28.94,91,100,8.57,IS,1741046197
381,kirgiz-miyaki,53.6324,54.7979,13.82,94,100,6.82,RU,1741046202
382,laojunmiao,39.8333,97.7333,27.18,30,0,5.7,CN,1741046206
383,misratah,32.3754,15.0925,59.77,75,2,10.18,LY,1741046210
384,port augusta,-32.5,137.7667,84.94,12,0,4.74,AU,1741046214
385,kampung sungai ara,5.327,100.2735,80.51,69,20,3.44,MY,1741046218
386,boca do acre,-8.7522,-67.3978,73.33,99,100,1.41,BR,1741046222
387,sorong,-0.8833,131.25,80.76,85,95,3.65,ID,1741046226
388,piti village,13.4626,144.6933,85.3,76,75,16.11,GU,1741046230
389,remire-montjoly,4.9167,-52.2667,78.84,83,100,5.75,GF,1741046235
390,monte alegre,-2.0078,-54.0692,74.3,96,98,2.86,BR,1741046239
391,den burg,53.0542,4.7972,40.98,100,100,3.44,NL,1741046244
392,dwarka,22.2394,68.9678,73.62,75,58,19.01,IN,1741046248
393,lerwick,60.1545,-1.1494,46.06,80,100,29.64,GB,1741046252
394,nadi,-17.8,177.4167,86.0,74,40,10.36,FJ,1741046257
395,jamjamal,35.5365,44.8317,44.38,44,100,4.52,IQ,1741046255
396,dryden,49.7833,-92.7503,44.89,49,0,9.22,CA,1741046265
397,harper,4.375,-7.7169,79.97,87,95,7.14,LR,1741046269
398,dalandzadgad,43.5708,104.425,26.49,73,79,7.25,MN,1741046273
399,nemuro,43.3236,145.575,24.15,54,2,15.48,JP,1741046278
400,tazovsky,67.4667,78.7,0.5,97,100,6.17,RU,1741046282
401,pacasmayo,-7.4006,-79.5714,78.22,72,100,12.71,PE,1741046286
402,loukhi,66.0764,33.0381,29.14,98,100,4.92,RU,1741046290
403,san martin de los andes,-40.1604,-71.3486,45.19,92,64,4.12,AR,1741046294
404,benguela,-12.5763,13.4055,77.9,80,96,4.23,AO,1741046298
405,dolbeau-mistassini,48.8763,-72.212,10.87,96,94,4.65,CA,1741046302
406,ciudad lazaro cardenas,17.9583,-102.2,79.75,64,87,9.51,MX,1741046306
407,nanjing,32.0617,118.7778,37.69,95,100,8.34,CN,1741046310
408,kingston,17.997,-76.7936,79.75,78,75,5.75,JM,1741046315
409,bubaque,11.2833,-15.8333,74.95,71,98,20.51,GW,1741046320
410,isangel,-19.55,169.2667,84.31,84,75,4.61,VU,1741046324
411,san pedro pochutla,15.7333,-96.4667,85.71,52,0,9.17,MX,1741046114
412,amga,60.8953,131.9608,-20.18,96,100,2.59,RU,1741046332
413,moranbah,-22.0016,148.0466,88.61,36,15,6.85,AU,1741046336
414,daru,-9.0763,143.2092,84.18,71,100,7.65,PG,1741046340
415,kristiansund,63.1115,7.732,43.12,87,75,29.93,NO,1741046344
416,necochea,-38.5473,-58.7368,72.27,85,75,7.36,AR,1741046349
417,cooma,-36.2333,149.1333,63.48,58,67,7.36,AU,1741046353
418,sanctuary point,-35.1114,150.629,70.79,59,97,9.26,AU,1741046357
419,slawharad,53.4446,31.0014,34.84,80,100,14.38,BY,1741046361
420,jining,35.405,116.5814,32.5,86,79,4.07,CN,1741046365
421,vorkuta,67.5,64.0,14.86,96,100,7.29,RU,1741046369
422,lepsy,46.235,78.9456,21.9,79,100,14.14,KZ,1741046373
423,shache,38.4167,77.2406,35.42,86,100,4.92,CN,1741046377
424,garissa,-0.4536,39.6401,79.43,64,34,11.56,KE,1741046390
425,hadibu,12.65,54.0333,75.29,77,3,10.74,YE,1741046394
426,huilong,31.8111,121.655,42.03,93,100,23.53,CN,1741046398
427,castillos,-34.1667,-53.8333,72.99,96,62,6.24,UY,1741046402
428,bengkulu,-3.8004,102.2655,75.9,92,97,4.43,ID,1741046406
429,buala,-8.145,159.5921,84.87,70,100,3.49,SB,1741046411
430,jaisalmer,26.9147,70.9181,60.24,12,3,10.33,IN,1741046416
431,aconibe,1.2968,10.9369,68.72,98,100,3.47,GQ,1741046420
432,nar'yan-mar,67.6713,53.087,24.13,95,100,14.23,RU,1741046424
433,aras-asan,8.8908,126.3033,78.12,88,99,2.84,PH,1741046428
434,luanda,-8.8368,13.2343,82.4,78,75,9.22,AO,1741046432
435,hpa-an,16.8906,97.6333,71.44,91,33,1.95,MM,1741046436
436,pursat,12.3333,103.6667,74.05,71,98,1.9,KH,1741046440
437,korla,41.7597,86.1469,37.92,47,100,14.74,CN,1741046445
438,ulladulla,-35.35,150.4667,70.88,58,81,9.82,AU,1741046449
439,shipley,53.8333,-1.7667,43.25,86,76,5.95,GB,1741046453
440,cam ranh,11.9214,109.1591,75.16,94,0,0.0,VN,1741046457
441,watertown,42.3709,-71.1828,30.11,37,40,9.22,US,1741046435
442,vicuna,-30.0319,-70.7081,71.96,49,0,2.93,CL,1741046466
443,midvagur,62.0511,-7.1939,45.43,87,100,14.97,FO,1741046474
444,soligalich,59.0778,42.2864,24.1,96,100,7.96,RU,1741046478
445,rajula,21.05,71.4333,74.43,57,72,12.41,IN,1741046482
446,itaqui,-29.1253,-56.5531,92.08,32,68,3.36,BR,1741046487
447,bay city,43.5945,-83.8889,37.26,53,0,10.36,US,1741046350
448,northam,51.0333,-4.2167,34.81,92,2,1.01,GB,1741046495
449,auki,-8.7676,160.7034,83.75,76,96,2.04,SB,1741046500
450,megion,61.0296,76.1136,21.22,99,99,4.25,RU,1741046504
451,santa terezinha,-29.9002,-50.0904,76.68,89,1,16.73,BR,1741046509
452,bechar,31.6167,-2.2167,64.72,20,40,8.05,DZ,1741046513
453,north platte,41.1239,-100.7654,44.49,100,100,6.91,US,1741046517
454,cockburn town,21.4612,-71.1419,76.96,88,40,13.8,TC,1741046521
455,colinas,-6.0258,-44.2492,72.82,97,100,2.44,BR,1741046525
456,tananger,58.9333,5.6,45.28,72,75,14.97,NO,1741046529
457,deniliquin,-35.5333,144.9667,80.85,40,0,13.4,AU,1741046533
458,kourou,5.1552,-52.6478,75.65,89,63,5.79,GF,1741046541
459,flying fish cove,-10.4217,105.6791,80.28,89,99,6.91,CX,1741046546
460,laguna,38.421,-121.4238,63.07,48,0,3.44,US,1741046464
461,viedma,-40.8135,-62.9967,69.44,60,89,7.47,AR,1741046372
462,atar,20.5169,-13.0499,65.53,39,56,0.92,MR,1741046558
463,lebedyn,50.5852,34.4849,34.47,93,100,14.07,UA,1741046562
464,krasnyy luch,48.1395,38.9371,28.92,88,100,11.25,UA,1741046566
465,hanawa,40.1836,140.7872,29.52,57,82,3.2,JP,1741046570
466,jianguang,28.1938,115.7836,41.97,79,100,8.41,CN,1741046574
467,chibuto,-24.6867,33.5306,70.59,89,63,2.8,MZ,1741046579
468,posse,-14.0931,-46.3694,76.26,51,81,5.53,BR,1741046587
469,granja,-3.1203,-40.8261,73.99,99,72,1.9,BR,1741046591
470,sambiase,38.9654,16.2847,46.15,65,34,9.22,IT,1741046595
471,lucapa,-8.4192,20.7447,65.79,92,100,2.91,AO,1741046599
472,lukolela,-1.0605,17.1821,74.1,89,94,3.62,CD,1741046604
473,conceicao da barra,-18.5933,-39.7322,74.16,91,59,4.79,BR,1741046608
474,madimba,-10.4,40.3333,77.99,81,17,1.99,TZ,1741046612
475,levuka,50.1834,-105.4011,31.71,93,100,10.96,CA,1741046616
476,faya-largeau,17.9257,19.1043,78.22,10,2,8.84,TD,1741046620
477,ebon,4.582,168.6964,82.27,72,57,20.96,MH,1741046624
478,coyhaique,-45.5752,-72.0662,46.09,95,73,3.24,CL,1741046628
479,ypsonas,34.6884,32.9574,50.97,82,0,4.61,CY,1741046633
480,geraldton,-28.7667,114.6,72.01,73,8,12.66,AU,1741046637
481,shangmei,27.7428,111.2956,35.19,89,100,3.56,CN,1741046641
482,mount isa,-20.7333,139.5,94.77,34,0,5.75,AU,1741046645
483,kathmandu,27.7167,85.3167,52.02,82,20,2.3,NP,1741046587
484,kimbe,-5.5502,150.1429,87.55,65,92,1.14,PG,1741046654
485,arteche,12.2645,125.4048,79.27,91,100,7.36,PH,1741046658
486,cremona,45.2333,9.9333,44.28,77,5,1.12,IT,1741046662
487,choibalsan,48.0667,114.5,26.1,43,100,2.39,MN,1741046666
488,keetmanshoop,-26.5833,18.1333,76.8,42,73,10.4,NA,1741046671
489,tsetserleg,47.475,101.4542,15.3,84,100,2.71,MN,1741046676
490,palikir - national government center,6.9248,158.1611,86.85,75,75,11.5,FM,1741046680
491,barcelos,41.5388,-8.6151,51.08,82,100,5.66,PT,1741046640
492,westerland,54.9079,8.3033,41.09,100,100,16.11,DE,1741046688
493,placido de castro,-10.3353,-67.1856,72.54,99,100,0.4,BR,1741046692
494,paita,-5.0892,-81.1144,80.13,74,91,15.32,PE,1741046696
495,driefontein,-27.0177,30.4498,56.79,95,4,3.02,ZA,1741046700
496,monte argentario,42.4345,11.1195,49.33,67,0,4.63,IT,1741046705
497,arica,-18.475,-70.3042,71.83,73,0,5.75,CL,1741046709
498,forster,-32.1667,152.5167,75.9,76,41,16.89,AU,1741046713
499,khamis mushait,18.3064,42.7292,63.21,42,0,16.11,SA,1741046527
500,lautoka,-17.6167,177.4667,85.86,74,40,10.36,FJ,1741046722
501,naantali,60.4674,22.0243,39.61,75,0,11.5,FI,1741046727
502,shambu,9.5667,37.1,60.26,52,97,1.81,ET,1741046731
503,trairi,-3.2778,-39.2689,78.24,85,95,5.86,BR,1741046735
504,padang,-0.9492,100.3543,77.05,87,100,3.76,ID,1741046493
505,shatrovo,56.5167,64.6333,8.17,97,100,2.84,RU,1741046743
506,sao joao de pirabas,-0.7747,-47.1772,75.04,94,100,3.36,BR,1741046747
507,page,36.9147,-111.4558,44.38,47,40,28.01,US,1741046698
508,nuuk,64.1835,-51.7216,9.21,85,75,29.93,GL,1741046514
509,wenling,28.3669,121.36,52.23,95,100,6.87,CN,1741046760
510,bijie,27.3125,105.2942,46.04,94,100,5.77,CN,1741046764
511,tahe,52.3333,124.7333,7.7,90,54,1.99,CN,1741046768
512,olinda,-8.0089,-34.8553,80.33,83,40,10.36,BR,1741046772
513,noosa heads,-26.3833,153.15,79.02,67,24,17.92,AU,1741046776
514,khandud,36.9513,72.318,3.78,97,100,4.88,AF,1741046780
515,az zuwaytinah,30.9522,20.1202,60.13,54,0,12.03,LY,1741046784
516,clinton,42.587,-82.9199,38.19,62,100,12.66,US,1741046788
517,axim,4.8699,-2.2405,80.19,86,63,7.74,GH,1741046793
518,cao bang,22.6667,106.25,70.86,93,87,1.54,VN,1741046797
519,thames,-37.1333,175.5333,71.58,68,100,6.51,NZ,1741046801
520,prymors'k,46.7348,36.3443,33.06,79,53,10.04,UA,1741046805
521,taseyevo,57.2169,94.8978,13.26,98,100,2.37,RU,1741046809
522,saldanha,-33.0117,17.9442,66.09,99,81,4.85,ZA,1741046813
523,thurso,58.5927,-3.5259,44.85,80,99,22.44,GB,1741046817
524,ubon ratchathani,15.1667,105.1667,79.25,54,24,5.7,TH,1741046821
525,vydrino,51.485,104.8461,10.17,83,14,4.72,RU,1741046826
526,ujae,8.9322,165.7642,81.05,79,34,23.85,MH,1741046831
527,ad dilam,23.9915,47.1627,58.05,28,88,7.76,SA,1741046835
528,weno,7.4515,151.8468,82.85,73,95,17.67,FM,1741046839
529,santa marta de ortigueira,43.6833,-7.85,56.25,83,89,3.0,ES,1741046844
530,pacific grove,36.6177,-121.9166,55.65,83,20,17.27,US,1741046848
531,saint-denis,48.9167,2.3333,43.14,80,0,6.91,FR,1741046852
532,rabaul,-4.1967,152.1721,82.85,72,71,3.47,PG,1741046856
533,inhambane,-23.865,35.3833,74.08,87,59,6.11,MZ,1741046860
534,hafar al-batin,28.4328,45.9708,48.78,46,0,11.5,SA,1741046864
535,kruisfontein,-34.0033,24.7314,84.15,36,97,5.77,ZA,1741046587
536,laibin,23.7,109.2667,59.94,83,97,10.38,CN,1741046873
537,callao,-12.0667,-77.15,82.72,78,0,13.8,PE,1741046779
538,chuzhou,32.3219,118.2978,36.57,96,100,8.25,CN,1741046881
539,ciudad bolivar,8.1222,-63.5497,88.79,44,79,18.63,VE,1741046666
540,kloulklubed,7.0419,134.2556,82.69,83,100,19.37,PW,1741046889
541,guantanamo,20.1444,-75.2092,74.77,79,92,3.6,CU,1741046893
542,acarau,-2.8856,-40.12,78.67,86,84,7.99,BR,1741046897
543,jardim,-21.4803,-56.1381,75.97,66,100,2.06,BR,1741046901
544,kuching,1.55,110.3333,80.98,92,100,0.49,MY,1741046695
545,yukhnov,54.7444,35.2297,33.35,93,100,11.68,RU,1741046910
546,kushk,33.2957,61.9522,32.9,25,0,3.47,AF,1741046914
547,saint-philippe,-21.3585,55.7679,79.27,81,23,8.5,RE,1741046918
548,bantva,21.4864,70.0689,72.75,55,44,12.46,IN,1741046922
549,nikel,69.4128,30.222,22.06,98,100,4.54,RU,1741046926
550,tanout,14.9709,8.8879,78.24,15,63,11.65,NE,1741046930
551,kargasok,59.0556,80.8572,14.41,98,95,5.61,RU,1741046934
552,karasu,41.071,30.7854,39.27,86,60,8.12,TR,1741046938
553,lichuan,30.3,108.85,39.49,95,100,3.94,CN,1741046943
554,berezovyy,51.6667,135.7,0.9,72,4,4.34,RU,1741046947
555,las parejas,-32.6848,-61.5164,81.45,75,20,9.64,AR,1741046951
556,thunder bay,48.4001,-89.3168,35.58,64,75,5.75,CA,1741046668
557,salida,37.7058,-121.0849,64.09,46,20,10.36,US,1741046959
558,el quebrachal,-25.2833,-64.0667,91.22,33,71,9.57,AR,1741046963
559,cocula,20.3652,-103.8222,86.23,19,65,10.6,MX,1741046967
560,san julian,21.0167,-102.1667,79.7,15,39,13.85,MX,1741046972
561,kovdor,67.5662,30.4758,17.38,98,100,2.42,RU,1741046976
562,brisas de zicatela,15.8369,-97.0419,84.72,70,20,5.75,MX,1741046980
563,mercedes,-34.6515,-59.4307,71.94,93,93,8.84,AR,1741046985
564,khor,47.8861,134.9464,-3.35,88,5,8.08,RU,1741046989
565,prince george,53.9166,-122.753,38.39,74,89,1.61,CA,1741046993
566,juan griego,11.0817,-63.9655,75.11,89,66,9.46,VE,1741046997
567,goondiwindi,-28.55,150.3167,82.35,39,0,7.16,AU,1741047001
568,paredon,16.0333,-93.8667,83.97,63,3,5.37,MX,1741047005
569,kokopo,-4.352,152.2633,83.62,69,70,3.74,PG,1741047010
570,natal,-5.795,-35.2094,81.03,74,15,11.59,BR,1741047014
571,anchorage,61.2181,-149.9003,42.98,68,100,5.75,US,1741046887
572,el alto,-4.2714,-81.2147,77.83,75,99,10.07,PE,1741047026
573,jian'ou,27.0469,118.3253,56.7,87,100,3.18,CN,1741047030
574,naze,28.3667,129.4833,69.62,87,100,15.41,JP,1741047034
575,quang ngai,15.1167,108.8,73.89,88,51,3.44,VN,1741047038
576,mount darwin,-16.7725,31.5838,67.57,92,86,0.92,ZW,1741047042
