City_ID,City,Lat,Lng,Max Temp,Humidity,Cloudiness,Wind Speed,Country,Date
0,atafu village,-8.5421,-172.5159,80.96,77,72,8.08,TK,1741535225
1,west island,-12.1568,96.8225,84.18,89,100,8.05,CC,1741535230
2,morant bay,17.8815,-76.4093,83.07,71,36,10.16,JM,1741535234
3,port-aux-francais,-49.35,70.2167,43.38,88,100,32.95,TF,1741535238
4,ushuaia,-54.8,-68.3,51.46,58,75,12.66,AR,1741535219
5,bilibino,68.0546,166.4372,-20.74,94,97,3.98,RU,1741535246
6,hawaiian paradise park,19.5933,-154.9731,66.9,100,0,5.75,US,1741535250
7,lompoc,34.6391,-120.4579,54.14,81,0,8.05,US,1741535254
8,saint-philippe,-21.3585,55.7679,79.59,82,40,10.83,RE,1741535258
9,pacific grove,36.6177,-121.9166,39.31,87,0,5.75,US,1741535262
10,puerto ayora,-0.7393,-90.3518,83.55,88,49,3.0,EC,1741535267
11,bethel,41.3712,-73.414,41.94,43,75,16.11,US,1741535271
12,nurota,40.5614,65.6886,45.39,70,100,10.74,UZ,1741535275
13,chonchi,-42.6128,-73.8092,65.12,44,49,0.96,CL,1741535279
14,grytviken,-54.2811,-36.5092,33.62,72,42,12.73,GS,1741535283
15,tame,6.461,-71.73,95.97,26,13,11.34,CO,1741535287
16,mejit,10.2753,170.8646,79.86,73,14,25.66,MH,1741535291
17,camalu,30.85,-116.0667,60.1,37,0,0.67,MX,1741535295
18,iskateley,67.6803,53.1512,6.98,93,80,8.3,RU,1741535300
19,college,64.8569,-147.8028,13.98,72,0,11.5,US,1741535304
20,port hueneme,34.1478,-119.1951,56.48,51,0,0.94,US,1741535308
21,georgetown,5.4112,100.3354,85.95,66,20,3.44,MY,1741535047
22,ulsteinvik,62.3432,5.8487,37.53,94,100,14.36,NO,1741535316
23,waitangi,-43.9535,-176.5597,56.79,72,4,7.83,NZ,1741535324
24,avarua,-21.2078,-159.775,78.85,89,20,4.61,CK,1741535328
25,hithadhoo,-0.6,73.0833,83.1,70,72,14.03,MV,1741535332
26,tres palos,18.1833,-101.6167,83.91,35,0,3.27,MX,1741535337
27,sretensk,52.2453,117.7093,22.1,97,100,1.74,RU,1741535341
28,queenstown,-31.8976,26.8753,76.12,59,93,4.83,ZA,1741535345
29,tamanrasset,22.785,5.5228,66.11,59,40,13.8,DZ,1741535349
30,viedma,-40.8135,-62.9967,71.44,29,2,16.35,AR,1741535353
31,longyearbyen,78.2186,15.6401,13.84,85,40,11.5,SJ,1741535144
32,karystos,38.0133,24.4161,58.75,54,0,3.94,GR,1741535365
33,la'ie,21.6477,-157.9253,69.12,92,99,8.99,US,1741535338
34,kununurra,-15.7667,128.7333,80.58,78,79,3.44,AU,1741535374
35,kyzyl-mazhalyk,51.1333,90.6,17.29,96,100,2.13,RU,1741535378
36,gadzhiyevo,69.2551,33.3362,18.34,94,31,4.97,RU,1741535382
37,sao jose da coroa grande,-8.8978,-35.1478,82.29,75,37,11.88,BR,1741535386
38,namibe,-15.1961,12.1522,79.95,75,67,13.02,AO,1741535390
39,mazamari,-11.3258,-74.5308,82.87,57,100,3.42,PE,1741535394
40,midvagur,62.0511,-7.1939,38.23,81,75,27.63,FO,1741535398
41,dickinson,29.4608,-95.0513,56.03,77,100,17.27,US,1741535283
42,guerrero negro,27.9769,-114.0611,61.77,33,0,5.79,MX,1741535407
43,new norfolk,-42.7826,147.0587,65.71,71,100,3.47,AU,1741535411
44,blackmans bay,-43.0167,147.3167,64.53,91,100,6.4,AU,1741535415
45,albany,42.6001,-73.9662,34.75,56,67,1.99,US,1741535266
46,edinburgh of the seven seas,-37.0676,-12.3116,63.59,79,9,17.94,SH,1741535423
47,moranbah,-22.0016,148.0466,77.58,77,73,9.08,AU,1741535427
48,puerto natales,-51.7236,-72.4875,61.25,48,75,28.77,CL,1741535432
49,paradise point,-27.8863,153.3957,74.21,93,100,3.0,AU,1741535436
50,lebu,-37.6167,-73.65,62.58,53,32,20.85,CL,1741535440
51,bella vista,36.4295,-94.2316,52.74,42,0,8.05,US,1741535444
52,chinde,26.8212,87.7095,66.79,33,1,6.53,NP,1741535448
53,glace bay,46.1969,-59.957,27.05,64,75,10.0,CA,1741535452
54,selfoss,63.9331,-20.9971,36.05,55,74,1.34,IS,1741535457
55,jati,24.3539,68.2671,87.19,26,94,9.15,PK,1741535461
56,manakara,-22.1333,48.0167,78.31,88,94,5.86,MG,1741535465
57,christchurch,-43.5333,172.6333,53.04,99,32,3.44,NZ,1741535297
58,wailua homesteads,22.0669,-159.378,70.59,89,100,21.85,US,1741535473
59,arraial do cabo,-22.9661,-42.0278,91.36,55,0,17.27,BR,1741535477
60,howrah,22.5892,88.3103,78.8,73,20,6.91,IN,1741535481
61,adamstown,-25.066,-130.1015,76.55,61,99,19.84,PN,1741535485
62,bel ombre,-4.6167,55.4167,84.04,74,40,2.3,SC,1741535490
63,kingscliff,-28.2667,153.5667,75.0,88,75,13.8,AU,1741535494
64,aasiaat,68.7098,-52.8699,28.36,94,62,4.38,GL,1741535230
65,carnarvon,-24.8667,113.6333,74.8,73,0,21.81,AU,1741535502
66,ribeira grande,38.5167,-28.7,61.2,77,75,16.11,PT,1741535506
67,yellowknife,62.456,-114.3525,-17.88,76,75,5.75,CA,1741535510
68,margaret river,-33.95,115.0667,57.16,78,39,9.93,AU,1741535514
69,thompson,55.7435,-97.8558,5.16,85,75,6.91,CA,1741535450
70,kirakira,-10.4544,161.9205,78.48,83,15,1.16,SB,1741535523
71,devonport,-41.1667,146.35,63.52,94,100,5.55,AU,1741535527
72,palikir - national government center,6.9248,158.1611,81.34,74,40,5.75,FM,1741535531
73,stanley,54.868,-1.6985,55.42,54,98,3.44,GB,1741535535
74,lihue,21.9789,-159.3672,71.19,83,100,21.85,US,1741535539
75,genhe,50.7833,121.5167,23.94,97,100,4.29,CN,1741535543
76,udachny,66.4167,112.4,-31.65,100,61,3.04,RU,1741535548
77,wajir,1.7471,40.0573,98.56,30,40,8.05,KE,1741535552
78,nassau,40.7507,-73.5829,43.66,40,0,12.66,US,1741535380
79,invercargill,-46.4,168.35,48.31,95,96,3.91,NZ,1741535560
80,kone,-21.0595,164.8658,72.77,86,95,4.32,NC,1741535564
81,mount pearl,47.5166,-52.7813,38.14,79,65,4.0,CA,1741535568
82,abadan,30.3392,48.3043,71.74,38,63,7.61,IR,1741535572
83,tura,25.5198,90.2201,67.69,30,0,4.59,IN,1741535576
84,keffi,8.8486,7.8736,103.44,10,63,9.55,NG,1741535359
85,smithers,54.7804,-127.1743,23.32,93,20,0.0,CA,1741535585
86,susuman,62.7833,148.1667,-19.62,97,100,3.47,RU,1741535589
87,miyako,39.6367,141.9525,32.54,75,5,4.76,JP,1741535593
88,yuzhno-kurilsk,44.0306,145.8556,25.38,89,22,13.0,RU,1741535597
89,olyokminsk,60.3736,120.4264,-32.96,100,53,2.39,RU,1741535601
90,weno,7.4515,151.8468,82.35,78,40,8.05,FM,1741535605
91,iqaluit,63.7506,-68.5145,24.53,58,100,6.91,CA,1741535609
92,port mathurin,-19.6833,63.4167,81.48,69,41,11.95,MU,1741535613
93,pionerskiy,54.9508,20.2275,46.24,71,100,9.01,RU,1741535617
94,tiksi,71.6872,128.8694,-19.08,97,93,8.66,RU,1741535622
95,tommot,58.9564,126.2925,5.43,98,100,3.42,RU,1741535626
96,yiyang,28.5892,112.3283,48.24,91,100,1.59,CN,1741535630
97,flin flon,54.7682,-101.865,8.44,72,40,5.75,CA,1741535429
98,qaqortoq,60.7167,-46.0333,37.83,75,58,32.55,GL,1741535638
99,nadi,-17.8,177.4167,77.0,78,40,6.91,FJ,1741535642
100,manokwari,-0.8667,134.0833,79.59,75,100,3.36,ID,1741535646
101,punta arenas,-53.15,-70.9167,55.51,62,75,21.85,CL,1741535650
102,itamaraca,-7.7478,-34.8256,84.78,66,68,10.13,BR,1741535654
103,dumfries,38.5676,-77.328,52.63,37,100,1.99,US,1741535659
104,la gi,10.6667,107.7833,77.36,84,99,7.99,VN,1741535663
105,anadyr,64.75,177.4833,3.7,66,0,2.24,RU,1741535667
106,oriximina,-1.7656,-55.8661,74.28,95,100,3.29,BR,1741535392
107,constantia,44.1833,28.65,50.7,86,96,5.61,RO,1741535675
108,ponta delgada,37.7333,-25.6667,56.12,88,40,13.8,PT,1741535679
109,isafjordur,66.0755,-23.124,39.24,65,75,5.75,IS,1741535568
110,papatowai,-46.5619,169.4708,49.35,93,99,3.94,NZ,1741535687
111,afif,23.9065,42.9172,71.73,31,0,3.24,SA,1741535691
112,isfahan,32.6572,51.6776,58.64,43,0,2.24,IR,1741535695
113,whitehorse,60.7161,-135.0538,12.97,100,75,2.3,CA,1741535482
114,vilyuchinsk,52.9306,158.4028,10.67,77,1,14.03,RU,1741535708
115,mhamid,29.82,-5.72,72.84,20,0,27.36,MA,1741535712
116,wafangdian,39.6183,122.0081,36.97,85,1,5.06,CN,1741535716
117,eyl,7.9803,49.8164,79.0,80,16,12.95,SO,1741535720
118,ardrossan,55.6502,-4.8066,59.45,74,1,5.93,GB,1741535724
119,ancud,-41.8697,-73.8203,57.78,51,42,4.32,CL,1741535721
120,comodoro rivadavia,-45.8667,-67.5,64.26,29,0,14.97,AR,1741535733
121,hermanus,-34.4187,19.2345,71.8,69,0,20.83,ZA,1741535645
122,igarka,67.4667,86.5833,-22.47,91,4,6.11,RU,1741535741
123,kodiak,57.79,-152.4072,35.11,93,100,24.16,US,1741535745
124,sao carlos,-22.0175,-47.8908,86.97,37,10,7.02,BR,1741535749
125,klaksvik,62.2266,-6.589,37.4,82,100,33.98,FO,1741535753
126,vorgashor,67.5833,63.95,-13.18,98,21,3.83,RU,1741535758
127,olonkinbyen,70.9221,-8.7187,19.58,61,92,6.38,SJ,1741535762
128,orito,0.6766,-76.8771,84.0,61,77,4.12,CO,1741535766
129,chibougamau,49.9168,-74.3659,6.42,66,40,6.91,CA,1741535770
130,sitka,57.0531,-135.33,39.09,81,100,9.22,US,1741535774
131,rouissat,31.9243,5.3502,86.07,12,0,20.71,DZ,1741535778
132,bengkulu,-3.8004,102.2655,78.03,82,99,2.82,ID,1741535782
133,port elizabeth,-33.918,25.5701,69.31,96,20,16.11,ZA,1741535786
134,emerald,-23.5333,148.1667,80.35,53,99,10.09,AU,1741535790
135,tolanaro,-25.0319,46.9987,82.47,89,40,18.41,MG,1741535795
136,okha,53.5739,142.9478,2.01,96,42,8.72,RU,1741535799
137,dossor,47.5272,52.9811,32.0,78,48,5.5,KZ,1741535803
138,crane,31.3974,-102.3501,50.14,44,9,14.14,US,1741535807
139,linkou,45.3,130.2833,27.9,65,4,4.54,CN,1741535811
140,paita,-5.0892,-81.1144,81.12,65,94,7.02,PE,1741535819
141,nova sintra,14.8667,-24.7167,70.83,76,43,22.59,CV,1741535828
142,nyurba,63.2842,118.3319,-36.44,100,95,1.23,RU,1741535832
143,santa cruz,-17.8,-63.1667,71.65,94,100,14.97,BO,1741535743
144,mitu,1.1983,-70.1733,88.65,50,92,2.53,CO,1741535833
145,reggane,26.7158,0.1714,88.14,15,0,17.96,DZ,1741535844
146,baraki barak,33.9675,68.9486,49.08,48,100,3.13,AF,1741535617
147,puerto baquerizo moreno,-0.9,-89.6,81.59,83,75,9.22,EC,1741535852
148,kawant,22.1,74.05,85.77,17,0,5.01,IN,1741535856
149,sicuani,-14.2694,-71.2261,58.14,59,100,5.66,PE,1741535861
150,trincomalee,8.5711,81.2335,81.68,69,5,13.89,LK,1741535869
151,mugia,43.1041,-9.2179,57.9,75,100,27.2,ES,1741535873
152,shanhecun,44.7,127.2,40.82,55,5,18.61,CN,1741535877
153,beira,-19.8436,34.8389,87.89,66,40,10.36,MZ,1741535881
154,surgut,61.25,73.4167,-7.42,84,20,6.71,RU,1741535885
155,portland,45.5234,-122.6762,45.21,92,75,15.01,US,1741535842
156,mammoth lakes,37.6485,-118.9721,34.34,34,0,4.61,US,1741535893
157,fortuna,40.5982,-124.1573,38.32,100,0,8.05,US,1741535898
158,ola,59.5833,151.2833,-15.97,91,93,4.29,RU,1741535902
159,st. john's,47.5649,-52.7093,39.07,78,68,3.0,CA,1741535906
160,ilulissat,69.2167,-51.1,37.42,81,75,5.75,GL,1741535910
161,cluain meala,52.355,-7.7039,61.5,73,46,8.03,IE,1741535914
162,codrington,-38.2667,141.9667,66.99,84,0,7.23,AU,1741535918
163,saint-georges,12.0564,-61.7485,85.68,66,40,14.97,GD,1741535922
164,yurimaguas,-5.9,-76.0833,75.36,94,100,0.0,PE,1741535679
165,toyooka,35.5333,134.8333,35.33,87,54,4.72,JP,1741535930
166,jacmel,18.2342,-72.5347,82.65,65,11,8.12,HT,1741535935
167,vila velha,-20.3297,-40.2925,89.55,51,40,10.36,BR,1741535939
168,vila franca do campo,37.7167,-25.4333,55.81,75,58,15.37,PT,1741535865
169,garissa,-0.4536,39.6401,94.53,37,99,9.46,KE,1741535947
170,buka,40.8108,69.1986,49.33,73,100,10.33,UZ,1741535951
171,chos malal,-37.3781,-70.2709,68.11,21,17,3.89,AR,1741535955
172,polyarnyy,69.1989,33.4478,19.67,91,34,4.61,RU,1741535959
173,papao,-17.75,-149.55,76.68,79,98,16.4,PF,1741535967
174,klyuchi,52.2667,79.1667,13.78,92,100,12.1,RU,1741535972
175,torquay,50.4638,-3.5143,50.72,85,99,3.0,GB,1741535976
176,sint michiel liber,12.15,-68.9833,85.82,70,20,13.8,CW,1741535980
177,nelson bay,-32.7167,152.15,72.09,94,67,8.01,AU,1741535984
178,cadale,2.7603,46.3222,80.58,85,98,17.92,SO,1741535988
179,pisco,-13.7,-76.2167,76.01,69,0,6.91,PE,1741535992
180,margate,51.3813,1.3862,58.87,72,46,7.78,GB,1741535827
181,port augusta,-32.5,137.7667,82.74,25,0,4.83,AU,1741535715
182,dudinka,69.4058,86.1778,-33.95,99,31,2.95,RU,1741536005
183,la passe,45.5549,-0.8967,54.81,71,100,9.4,FR,1741536009
184,sydney mines,46.2367,-60.2177,27.25,70,75,17.0,CA,1741536013
185,hasaki,35.7333,140.8333,47.41,50,4,17.13,JP,1741536017
186,alice springs,-23.7,133.8833,83.75,20,76,0.0,AU,1741536021
187,arys,42.4252,68.795,37.8,71,64,5.68,KZ,1741535886
188,durant,33.994,-96.3708,44.76,100,75,10.36,US,1741536002
189,uturoa,-16.7333,-151.4333,83.12,74,72,12.44,PF,1741536034
190,haiku-pauwela,20.9219,-156.3051,67.26,90,75,11.99,US,1741536038
191,utrik,11.2278,169.8474,79.93,70,10,25.14,MH,1741536042
192,chudovo,59.1167,31.6833,31.03,91,65,2.44,RU,1741536046
193,vilyuysk,63.7553,121.6247,-20.4,100,98,3.2,RU,1741536051
194,birzebbuga,35.8258,14.5269,63.28,82,40,11.5,MT,1741536055
195,kaohsiung,22.6163,120.3133,67.95,77,20,5.75,TW,1741536059
196,tazovsky,67.4667,78.7,-25.24,100,28,4.18,RU,1741536063
197,norwalk,33.9022,-118.0817,60.58,71,0,3.13,US,1741535967
198,revda,56.801,59.9303,22.62,96,100,6.91,RU,1741536071
199,jamestown,42.097,-79.2353,40.01,56,100,14.97,US,1741536075
200,richards bay,-28.783,32.0377,82.0,70,2,14.72,ZA,1741536079
201,surovikino,48.6078,42.8486,42.48,51,39,4.59,RU,1741536084
202,natal,-5.795,-35.2094,88.02,66,75,17.27,BR,1741536069
203,tanjung selor,2.8372,117.3642,73.74,99,100,1.34,ID,1741536092
204,east london,-33.0153,27.9116,70.74,94,75,12.66,ZA,1741536027
205,inhambane,-23.865,35.3833,80.96,74,3,9.46,MZ,1741536101
206,hamilton,39.1834,-84.5333,52.75,46,8,7.0,US,1741536106
207,bredasdorp,-34.5322,20.0403,70.45,56,0,23.85,ZA,1741536110
208,pokhara,28.2333,83.9833,59.47,36,33,5.59,NP,1741536114
209,happy valley-goose bay,53.3168,-60.3315,21.51,63,100,8.05,CA,1741536118
210,port macquarie,-31.4333,152.9167,68.07,99,98,4.0,AU,1741536122
211,rawson,-43.3002,-65.1023,68.29,34,0,17.27,AR,1741536126
212,aykhal,66.0,111.5,-25.94,100,70,3.76,RU,1741536131
213,krasnyy yar,46.5331,48.3456,35.73,67,15,8.9,RU,1741536135
214,saipan,15.1355,145.701,79.65,84,66,5.99,MP,1741536139
215,kupang,-10.1667,123.5833,77.58,94,75,0.0,ID,1741536062
216,prince rupert,54.3161,-130.3201,38.89,99,100,14.97,CA,1741535968
217,bandarbeyla,9.4942,50.8122,78.84,81,29,11.88,SO,1741536151
218,khorixas,-20.3667,14.9667,76.82,60,100,7.25,NA,1741536012
219,port alfred,-33.5906,26.891,72.18,87,86,9.35,ZA,1741536159
220,ketchikan,55.3422,-131.6461,38.77,96,99,3.0,US,1741536163
221,dryden,49.7833,-92.7503,35.89,75,0,16.11,CA,1741536168
222,arteche,12.2645,125.4048,77.32,90,100,10.33,PH,1741536172
223,nema,57.5067,50.5011,33.67,89,100,12.82,RU,1741536176
224,kailua-kona,19.6406,-155.9956,69.55,82,99,1.99,US,1741536064
225,tocopilla,-22.092,-70.1979,73.36,78,98,4.65,CL,1741536152
226,ardakan,32.31,54.0175,63.36,42,11,11.01,IR,1741536188
227,daru,-9.0763,143.2092,80.2,87,100,6.85,PG,1741536192
228,kievka,50.2619,71.5514,1.02,99,41,8.1,KZ,1741536196
229,mandan,46.8267,-100.8896,50.77,48,0,20.71,US,1741536200
230,kutaisi,42.2496,42.6997,63.37,32,0,27.63,GE,1741536205
231,talnakh,69.4865,88.3972,-21.82,77,20,2.3,RU,1741536209
232,fort bragg,35.139,-79.006,52.92,41,100,5.75,US,1741536213
233,brisas de zicatela,15.8369,-97.0419,84.72,65,20,4.61,MX,1741536217
234,juba,4.8517,31.5825,84.49,48,100,12.48,SS,1741536222
235,sandnessjoen,66.0217,12.6316,37.51,56,20,10.36,NO,1741536202
236,newman,37.3138,-121.0208,47.03,89,12,3.15,US,1741536230
237,chiredzi,-21.05,31.6667,89.58,51,0,4.61,ZW,1741536234
238,cockburn town,21.4612,-71.1419,78.76,65,20,3.44,TC,1741536238
239,monrovia,6.3005,-10.7969,82.22,74,95,10.85,LR,1741536242
240,lazaro cardenas,17.9583,-102.2,80.74,66,23,6.98,MX,1741536246
241,dul'durga,50.6761,113.5931,23.94,70,77,16.22,RU,1741536250
242,korla,41.7597,86.1469,47.35,28,35,6.93,CN,1741536255
243,ad dabbah,18.05,30.95,82.81,15,19,10.78,SD,1741536259
244,sterling,39.0062,-77.4286,53.33,40,75,11.5,US,1741536263
245,warman,52.3168,-106.5679,30.11,80,75,11.5,CA,1741536267
246,bathsheba,13.2167,-59.5167,86.61,58,40,18.41,BB,1741536275
247,rikaze,29.25,88.8833,39.85,22,28,2.82,CN,1741536279
248,altai,46.3722,96.2583,20.43,57,54,14.92,MN,1741536284
249,coquimbo,-29.9533,-71.3436,68.99,63,40,12.66,CL,1741536288
250,katsuren-haebaru,26.3369,127.8719,68.02,80,93,11.41,JP,1741536292
251,tidaholm,58.1804,13.9582,52.12,69,25,2.91,SE,1741536296
252,tidjikja,18.5564,-11.4271,93.11,10,0,12.75,MR,1741536300
253,redencao,-4.2258,-38.7306,78.21,81,100,3.8,BR,1741536304
254,undurkhaan,47.3194,110.6556,28.2,42,38,18.52,MN,1741536308
255,maceio,-9.6658,-35.7353,85.44,58,75,14.97,BR,1741536313
256,la ronge,55.1001,-105.2842,5.25,72,75,11.5,CA,1741536182
257,le vauclin,14.5452,-60.8388,78.85,83,75,12.66,MQ,1741536321
258,al 'amarah,31.8406,47.1396,69.37,45,15,4.65,IQ,1741536325
259,mathba,22.2855,89.9629,72.59,73,0,6.04,BD,1741536330
260,helena,46.5927,-112.0361,40.19,60,0,4.61,US,1741536314
261,san julian,21.0167,-102.1667,66.94,23,2,3.02,MX,1741536338
262,kovin,44.7475,20.9761,61.14,38,2,14.43,RS,1741536342
263,matoury,4.8483,-52.3317,76.96,94,100,4.61,GF,1741536346
264,kerikeri,-35.2268,173.9474,53.37,91,0,4.79,NZ,1741536350
265,uyuni,-20.4597,-66.825,46.67,79,100,10.45,BO,1741536355
266,san jose de jachal,-30.2406,-68.7469,64.44,37,0,4.25,AR,1741536359
267,tete,-16.1564,33.5867,78.49,75,100,2.75,MZ,1741536199
268,mili,6.0815,171.735,80.64,78,23,23.33,MH,1741536367
269,enewetak,11.3474,162.3373,80.17,79,41,23.22,MH,1741536372
270,nar'yan-mar,67.6713,53.087,6.94,93,79,8.25,RU,1741536376
271,nanao,37.05,136.9667,37.26,78,12,2.51,JP,1741536380
272,belmonte,-15.8631,-38.8828,83.3,60,1,7.56,BR,1741536384
273,tagaw-bay,35.6994,66.0616,45.27,92,100,3.22,AF,1741536388
274,grand falls-windsor,48.9332,-55.6649,33.51,75,95,1.99,CA,1741536392
275,bamboo flat,11.7,92.7167,84.29,79,75,6.91,IN,1741536397
276,okhotsk,59.3833,143.3,-9.72,71,0,15.41,RU,1741536401
277,sarmiento,-45.5882,-69.07,64.87,36,100,26.73,AR,1741536405
278,galliano,29.4422,-90.2992,66.2,94,100,5.75,US,1741536194
279,kinablangan,7.6947,126.5503,74.68,90,100,3.44,PH,1741536413
280,ilha de mocambique,-15.0342,40.7358,79.56,94,100,34.76,MZ,1741536417
281,antsiranana,-12.2787,49.2917,77.77,88,98,3.62,MG,1741536422
282,marsabit,2.3284,37.9899,80.51,41,98,13.27,KE,1741536426
283,iquique,-20.2208,-70.1431,72.99,74,100,7.4,CL,1741536430
284,morondava,-20.2833,44.2833,81.39,82,100,21.72,MG,1741536434
285,cabo san lucas,22.8909,-109.9124,69.76,57,0,0.0,MX,1741536438
286,kingston,17.997,-76.7936,87.17,66,20,9.22,JM,1741536380
287,belyy yar,53.6039,91.3903,24.69,86,0,2.24,RU,1741536447
288,marsa alam,25.0757,34.8918,69.67,54,0,3.98,EG,1741536451
289,chinchilla,-26.75,150.6333,76.01,89,84,3.0,AU,1741536455
290,delice,39.9537,34.0259,55.45,39,95,2.77,TR,1741536459
291,forest,37.3638,-79.2897,50.05,40,0,6.91,US,1741536210
292,bakanas,44.8081,76.2772,33.48,72,12,10.31,KZ,1741536467
293,zeven,53.3,9.2833,56.88,59,15,5.93,DE,1741536472
294,oranjemund,-28.55,16.4333,66.79,75,2,17.25,NA,1741536476
295,kodinsk,58.6881,99.1844,11.07,97,100,1.95,RU,1741536480
296,dilling,12.05,29.65,84.0,14,90,11.05,SD,1741536484
297,nogliki,51.8333,143.1667,8.92,83,10,12.73,RU,1741536492
298,lensk,60.7253,114.9278,-25.08,100,54,4.81,RU,1741536501
299,hadibu,12.65,54.0333,77.81,77,17,10.13,YE,1741536505
300,puerto deseado,-47.7503,-65.8938,64.13,33,86,22.37,AR,1741536509
301,trelew,-43.249,-65.3051,73.67,27,0,13.8,AR,1741536513
302,nuuk,64.1835,-51.7216,32.61,86,100,48.34,GL,1741536517
303,south suffolk,36.7171,-76.5902,49.86,42,0,5.75,US,1741536521
304,straldzha,42.6,26.6833,54.09,50,0,3.69,BG,1741536526
305,suntar,62.1444,117.6319,-38.74,100,59,1.5,RU,1741536530
306,mahajanga,-15.7167,46.3167,81.28,82,100,14.43,MG,1741536534
307,marsh harbour,26.5412,-77.0636,75.79,66,0,9.69,BS,1741536538
308,el higo,21.7667,-98.4667,78.8,22,9,8.3,MX,1741536542
309,yelizovo,53.1873,158.3805,10.54,37,0,15.66,RU,1741536546
310,greymouth,-42.4667,171.2,52.43,94,55,5.28,NZ,1741536551
311,nivala,63.9167,24.9667,28.56,95,100,0.45,FI,1741536555
312,adam,22.3756,57.5233,83.53,16,3,7.7,OM,1741536559
313,obigarm,38.7173,69.7088,33.46,99,100,3.58,TJ,1741536563
314,puerto armuelles,8.2833,-82.8667,83.08,66,21,5.01,PA,1741536567
315,jiaojiang,28.6803,121.4428,49.42,84,94,1.99,CN,1741536572
316,beipiao,41.7919,120.7792,43.2,64,0,13.56,CN,1741536576
317,vernon,50.2581,-119.2691,39.43,77,100,4.23,CA,1741536580
318,noumea,-22.2763,166.4572,75.34,68,62,10.85,NC,1741536584
319,lerwick,60.1545,-1.1494,43.43,92,100,23.51,GB,1741536588
320,gornozavodsk,58.3758,58.3211,21.94,95,100,9.44,RU,1741536592
321,salinas,36.6777,-121.6555,49.78,82,0,5.75,US,1741536596
322,berdigestyakh,62.0989,126.6992,-19.46,100,98,4.21,RU,1741536601
323,makokou,0.5738,12.8642,80.4,71,80,4.65,GA,1741536605
324,eatonton,33.3268,-83.3885,53.56,72,100,7.92,US,1741536609
325,karratha,-20.7377,116.8463,87.4,56,67,3.58,AU,1741536613
326,kill devil hills,36.0307,-75.676,46.98,49,0,4.61,US,1741536617
327,tuzha,57.6062,47.936,31.42,84,82,10.63,RU,1741536621
328,kanye,-24.9667,25.3327,77.32,35,53,4.94,BW,1741536625
329,kokopo,-4.352,152.2633,78.48,82,33,4.03,PG,1741536602
330,tshikapa,-6.4167,20.8,85.21,65,44,0.49,CD,1741536633
331,piti village,13.4626,144.6933,81.48,83,20,11.5,GU,1741536637
332,togane,35.55,140.3667,37.76,37,4,7.47,JP,1741536642
333,kampung simpang renggam,1.8278,103.3,74.5,98,98,2.8,MY,1741536650
334,dunedin,-45.8742,170.5036,51.8,90,91,3.69,NZ,1741536654
335,cooma,-36.2333,149.1333,57.36,97,71,4.32,AU,1741536658
336,puerto tirol,-27.3722,-59.0821,73.4,73,100,12.66,AR,1741536662
337,nadym,65.5333,72.5167,-17.93,92,10,6.93,RU,1741536667
338,nova xavantina,-14.6667,-52.35,89.73,54,80,1.81,BR,1741536671
339,ebon,4.582,168.6964,81.95,77,27,20.18,MH,1741536675
340,morales,2.757,-76.6172,71.42,77,32,3.2,CO,1741536454
341,rongelap,11.1635,166.8941,80.06,76,16,23.67,MH,1741536683
342,kapuskasing,49.4169,-82.4331,21.29,58,75,10.36,CA,1741536689
343,san patricio,28.017,-97.5169,57.15,45,68,19.17,US,1741536694
344,ust'-talovka,50.5493,81.85,24.1,92,100,17.09,KZ,1741536698
345,sivasli,38.4994,29.6836,55.29,57,48,6.87,TR,1741536702
346,kapa'a,22.0752,-159.319,71.92,89,100,25.32,US,1741536543
347,shakawe,-18.3667,21.85,82.72,49,65,2.3,BW,1741536710
348,pankrushikha,53.8319,80.3406,12.02,96,100,8.68,RU,1741536714
349,palu,-0.8917,119.8707,74.79,97,93,3.13,ID,1741536718
350,stephenville,32.2207,-98.2023,44.15,88,100,12.66,US,1741536723
351,nouadhibou,20.931,-17.0347,71.58,60,40,18.41,MR,1741536727
352,simanggang,1.2472,111.4528,75.02,100,93,1.99,MY,1741536731
353,gardnerville ranchos,38.8882,-119.7413,27.99,86,0,0.0,US,1741536735
354,san agustin de valle fertil,-30.6335,-67.4682,67.64,39,43,11.16,AR,1741536739
355,smidovich,48.6,133.8167,5.99,99,96,4.16,RU,1741536743
356,palmer,42.1584,-72.3287,41.45,39,100,10.36,US,1741536747
357,port lincoln,-34.7333,135.8667,74.79,67,34,9.6,AU,1741536752
358,badger,64.8,-147.5333,10.65,78,20,4.61,US,1741536756
359,faya-largeau,17.9257,19.1043,96.82,10,82,10.27,TD,1741536760
360,mo i rana,66.3128,14.1428,32.47,64,0,6.91,NO,1741536764
361,mandalgovi,45.7625,106.2708,27.3,29,0,11.12,MN,1741536768
362,kongsvinger,60.1905,11.9977,41.97,85,100,3.0,NO,1741536772
363,labrador city,52.9463,-66.9114,4.91,78,100,12.62,CA,1741536613
364,manicore,-5.8092,-61.3003,82.76,71,98,0.96,BR,1741536780
365,popondetta,-8.7537,148.2534,74.41,95,98,2.64,PG,1741536785
366,sinabang,2.4803,96.3801,80.37,83,96,6.69,ID,1741536789
367,praia da vitoria,38.7333,-27.0667,56.64,78,76,18.14,PT,1741536793
368,worcester,42.3334,-71.8328,40.23,46,0,16.11,US,1741536612
369,machico,32.7,-16.7667,66.83,59,40,9.22,PT,1741536801
370,sao raimundo nonato,-9.0153,-42.6994,97.74,24,89,6.71,BR,1741536805
371,neryungri,56.6709,124.6491,-3.33,99,100,3.42,RU,1741536810
372,shingu,33.7333,135.9833,37.33,68,20,6.71,JP,1741536538
373,zyryanskoye,56.8306,86.6258,4.69,98,99,2.48,RU,1741536822
374,tindouf,27.6711,-8.1474,71.02,31,0,23.82,DZ,1741536826
375,hecun,36.5333,114.1111,49.57,60,2,7.2,CN,1741536830
376,solnechnyy,50.7214,136.6319,6.3,91,13,5.41,RU,1741536835
377,qarqaraly,49.4058,75.4742,10.67,95,99,14.16,KZ,1741536839
378,vuktyl,63.8567,57.3094,8.89,85,100,6.67,RU,1741536696
379,tazacorte,28.629,-17.9293,65.37,77,75,10.0,ES,1741536847
380,sao felix do xingu,-6.6447,-51.995,82.2,74,100,1.92,BR,1741536851
381,kemijarvi,66.7131,27.4306,16.39,98,11,3.04,FI,1741536855
382,el rama,12.1596,-84.2195,84.0,62,100,3.6,NI,1741536859
383,eenhana,-17.4667,16.3333,83.01,48,100,4.25,NA,1741536863
384,masaya sur,16.497,121.7456,71.19,99,100,1.34,PH,1741536868
385,jutai,-5.1833,-68.9,90.27,53,93,2.44,BR,1741536872
386,acapulco de juarez,16.8634,-99.8901,82.22,74,0,3.44,MX,1741536876
387,illizi,26.4833,8.4667,85.84,12,1,13.71,DZ,1741536880
388,pimentel,-6.8367,-79.9342,82.69,61,0,10.36,PE,1741536884
389,itanhem,-17.1664,-40.33,91.36,38,13,7.54,BR,1741536888
390,mariehamn,60.0973,19.9348,39.06,81,0,10.36,AX,1741536892
391,jambusar,22.05,72.8,88.86,22,0,5.39,IN,1741536896
392,port-gentil,-0.7193,8.7815,83.46,78,39,13.06,GA,1741536900
393,coracora,-15.0333,-73.7833,55.98,69,100,3.4,PE,1741536905
394,tual,-5.6667,132.75,82.81,74,100,3.09,ID,1741536909
395,energetik,51.7445,58.7934,24.33,86,100,20.54,RU,1741536917
396,alotau,-10.3069,150.4462,77.77,92,33,2.89,PG,1741536921
397,saudarkrokur,65.7461,-19.6394,30.47,80,67,10.22,IS,1741536925
398,vanimo,-2.6741,141.3028,78.33,90,96,3.2,PG,1741536929
399,bambanglipuro,-7.95,110.2833,76.78,93,100,4.03,ID,1741536933
400,ta`u,-14.2336,-169.5144,81.41,74,100,14.54,AS,1741536938
401,ixtapa,20.7,-105.2,70.83,60,0,2.3,MX,1741536942
402,tangalle,6.024,80.7911,77.4,77,6,9.84,LK,1741536946
403,karamay,45.6004,84.8661,40.69,53,100,41.43,CN,1741536950
404,santarem,-2.4431,-54.7083,75.33,100,100,3.44,BR,1741536954
405,kudahuvadhoo,2.6708,72.8944,82.11,78,24,8.28,MV,1741536958
406,elliot lake,46.3834,-82.6331,27.41,75,61,6.6,CA,1741536962
407,tanumah,27.1,44.1333,69.51,35,0,4.5,SA,1741536967
408,lorengau,-2.0226,147.2712,82.56,75,96,8.23,PG,1741536971
409,qui nhon,13.7667,109.2333,73.71,83,100,11.01,VN,1741536975
410,coronel suarez,-37.4547,-61.9334,65.43,49,0,3.13,AR,1741536925
411,san javier,37.8063,-0.8374,60.51,58,20,25.32,ES,1741536983
412,george town,5.4112,100.3354,85.95,66,20,5.99,MY,1741536915
413,askoy,60.4092,5.226,44.89,87,75,9.22,NO,1741536992
414,touros,-5.1989,-35.4608,85.68,63,94,12.08,BR,1741536996
415,mount isa,-20.7333,139.5,76.77,83,22,4.61,AU,1741537000
416,urangan,-25.3,152.9,76.91,86,100,15.55,AU,1741537004
417,lospalos,-8.5186,127.0025,73.96,89,100,0.81,TL,1741537008
418,akhtubinsk,48.2795,46.1722,39.04,60,3,8.12,RU,1741537012
419,al jawf,29.5,38.75,64.02,37,27,7.52,SA,1741537016
420,al hudaydah,14.7978,42.9545,79.77,70,96,12.24,YE,1741536995
421,swakopmund,-22.6833,14.5333,67.12,83,100,11.88,NA,1741537025
422,trinidad,-14.8333,-64.9,75.18,94,100,3.44,BO,1741537029
423,mil'kovo,55.6078,37.7956,47.62,36,94,6.55,RU,1741537033
424,"laikit, laikit ii (dimembe)",1.4792,124.9735,72.45,100,20,2.3,ID,1741537037
425,acarau,-2.8856,-40.12,75.51,92,100,8.52,BR,1741537042
426,whakatane,-37.9585,176.9854,57.51,87,0,5.01,NZ,1741537046
427,arno,60.1167,18.6333,40.51,78,98,7.72,SE,1741537050
428,kualakapuas,-3.0091,114.3876,75.54,97,99,1.41,ID,1741537054
429,jiazi,22.8779,116.067,61.56,82,100,14.54,CN,1741537058
430,kaoma,-14.7833,24.8,73.47,86,98,1.34,ZM,1741537062
431,fuerte olimpo,-21.0415,-57.8738,98.2,37,53,3.56,PY,1741537066
432,colonia,50.9333,6.95,67.44,28,0,6.91,DE,1741536906
433,jinka,5.65,36.65,72.54,58,100,1.52,ET,1741537079
434,balky,47.3834,34.944,48.02,55,100,9.44,UA,1741537083
435,sabha,27.0377,14.4283,84.33,18,0,1.92,LY,1741537087
436,maputo,-25.9653,32.5892,81.12,73,9,7.78,MZ,1741536910
437,cole harbour,44.6724,-63.4751,31.93,53,100,17.27,CA,1741537096
438,barranca,-10.75,-77.7667,77.05,68,100,8.81,PE,1741537100
439,westport,41.1415,-73.3579,43.83,40,20,14.97,US,1741536907
440,saint-pierre,-21.3393,55.4781,82.08,74,24,19.57,RE,1741536827
441,tangjiazhuang,39.7333,118.45,46.81,52,6,9.78,CN,1741537112
442,tuy hoa,13.0833,109.3,72.84,90,100,4.97,VN,1741537116
443,tromso,69.6496,18.957,32.02,64,75,17.27,NO,1741537121
444,fisterra,42.9049,-9.2629,54.91,75,93,30.11,ES,1741537125
445,phan rang-thap cham,11.5667,108.9833,74.3,87,96,7.07,VN,1741537129
446,rovaniemi,66.5,25.7167,29.61,69,0,2.3,FI,1741537133
447,valparaiso,-33.0393,-71.6273,75.47,49,0,13.8,CL,1741537006
448,woodward,36.4337,-99.3904,47.97,65,0,5.75,US,1741537141
449,bodaybo,57.8506,114.1933,-1.28,99,98,2.3,RU,1741537145
450,kushiro,42.975,144.3747,29.35,93,100,5.75,JP,1741537507
451,usogorsk,63.4106,48.6872,22.44,95,100,7.94,RU,1741537511
452,palmares do sul,-30.2578,-50.5097,70.48,88,100,15.14,BR,1741537515
453,nambucca heads,-30.65,153.0,71.69,79,99,9.53,AU,1741537519
454,chillicothe,39.3331,-82.9824,51.96,45,0,13.8,US,1741537350
455,porto san giorgio,43.1827,13.7934,55.09,78,99,8.88,IT,1741537527
456,san pedro del parana,-26.8333,-56.2,82.44,59,98,11.23,PY,1741537532
457,fort mcmurray,56.7268,-111.381,-8.01,64,100,5.75,CA,1741537536
458,tomatlan,19.9333,-105.25,83.98,23,0,2.37,MX,1741537540
459,togur,58.3631,82.8265,13.64,98,99,3.27,RU,1741537544
460,louisville,38.2542,-85.7594,55.06,42,0,3.44,US,1741537368
461,meadow lakes,61.6247,-149.6011,30.07,64,40,12.66,US,1741537552
462,vegreville,53.5001,-112.0518,33.85,100,100,2.3,CA,1741537556
463,xiaoweizhai,26.1903,107.5125,45.07,97,100,1.52,CN,1741537564
464,coahuayana de hidalgo,18.7,-103.6583,85.1,33,0,3.76,MX,1741537569
465,minas de marcona,-15.2119,-75.1103,72.55,56,79,13.29,PE,1741537577
466,abomsa,9.9833,39.9833,77.16,53,100,7.72,ET,1741537581
467,vineuil,47.5833,1.3833,53.91,93,100,4.85,FR,1741537585
468,vadso,70.0744,29.7487,24.96,80,30,12.66,NO,1741537589
469,la foa,-21.7108,165.8276,72.75,77,100,3.33,NC,1741537593
470,banikoara,11.2985,2.4386,104.5,7,80,5.7,BJ,1741537597
471,sucua,-2.4667,-78.1667,75.94,73,100,8.05,EC,1741537601
472,taulaga,-11.0553,-171.0883,81.64,68,100,5.93,AS,1741537606
473,paredon,16.0333,-93.8667,84.78,56,26,6.76,MX,1741537610
474,conduaga,8.862,117.4893,77.7,86,100,3.22,PH,1741537614
475,villa emilio carranza,19.9667,-96.6,71.22,72,96,24.58,MX,1741537618
476,bayanhongor,46.7167,100.1167,-3.42,81,2,5.44,MN,1741537622
477,sao joao da barra,-21.6403,-41.0511,91.49,76,1,18.39,BR,1741537626
478,waiuku,-37.25,174.75,57.67,74,0,3.27,NZ,1741537630
479,altagracia de orituco,9.8601,-66.3814,90.0,35,99,7.92,VE,1741537634
480,mogadishu,2.0371,45.3438,80.17,86,92,18.63,SO,1741537638
481,san antonio de pale,-1.4014,5.6325,83.14,79,55,11.68,GQ,1741537642
482,dhampur,29.3167,78.5167,70.63,19,13,6.29,IN,1741537647
483,al kharijah,25.4514,30.5464,74.12,20,0,9.19,EG,1741537651
484,scottburgh,-30.2867,30.7532,79.16,84,0,18.03,ZA,1741537655
485,alofi,-19.0595,-169.9187,78.69,89,75,4.61,NU,1741537659
486,ibimirim,-8.5406,-37.6903,95.95,27,41,12.46,BR,1741537663
487,bojnurd,37.4747,57.329,42.75,87,100,2.3,IR,1741537667
488,wilhelmshaven,53.5167,8.1333,51.53,71,13,7.0,DE,1741537671
489,petropavlovsk-kamchatsky,53.0452,158.6483,9.19,37,0,15.66,RU,1741537675
490,katsuura,35.1333,140.3,45.0,64,6,13.2,JP,1741537679
491,charlottetown,46.2352,-63.1267,24.57,65,100,11.5,CA,1741537560
492,gaspe,48.8334,-64.4819,25.02,58,75,16.11,CA,1741537445
493,keflavik,64.0049,-22.5624,41.43,70,75,8.05,IS,1741537692
494,plastun,44.7561,136.2939,23.85,70,0,4.88,RU,1741537696
495,carbonear,47.7332,-53.2148,39.24,69,56,9.31,CA,1741537700
496,hovd,48.0056,91.6419,24.49,60,23,9.13,MN,1741537704
497,quellon,-43.1167,-73.6167,58.33,58,76,3.44,CL,1741537708
498,hacienda huancane,-15.8222,-70.8856,41.77,81,100,1.52,PE,1741537712
499,mar del plata,-38.0023,-57.5575,66.94,55,75,9.22,AR,1741537716
500,ahar,38.4774,47.0699,42.37,81,90,5.06,IR,1741537721
501,byron bay,-28.65,153.6167,73.22,89,100,13.91,AU,1741537725
502,abeche,13.8292,20.8324,96.03,11,25,8.48,TD,1741537729
503,geraldton,-28.7667,114.6,66.61,68,0,12.66,AU,1741537517
504,naberera,-4.2,36.9333,72.1,69,100,5.41,TZ,1741537741
505,vorkuta,67.5,64.0,-14.01,100,16,3.62,RU,1741537745
506,santa marta de ortigueira,43.6833,-7.85,60.1,58,65,5.7,ES,1741537749
507,mirny,62.5353,113.9611,-33.57,100,93,2.04,RU,1741537754
508,kimbe,-5.5502,150.1429,76.32,91,91,3.56,PG,1741537758
509,pagar alam,-4.0167,103.2667,70.57,99,98,0.89,ID,1741537762
510,mazatlan,23.2167,-106.4167,66.9,55,0,0.0,MX,1741537766
511,puerto santa,-8.9906,-78.6456,76.42,74,100,8.95,PE,1741537770
512,dingcheng,32.1272,115.0394,51.84,80,99,2.93,CN,1741537774
513,turkestan,43.3333,68.25,37.44,64,3,4.72,KZ,1741537778
514,juan de ayolas,-27.4,-56.9,72.28,84,100,8.95,PY,1741537782
515,forster,-32.1667,152.5167,71.35,82,98,10.0,AU,1741537787
516,chu,43.5983,73.7614,35.22,90,100,6.24,KZ,1741537791
517,grand forks,47.9417,-97.4337,46.33,54,0,16.11,US,1741537744
518,richfield,44.8833,-93.283,48.38,58,40,14.97,US,1741537570
519,antalaha,-14.9003,50.2788,76.95,91,100,2.62,MG,1741537803
520,la sarre,48.8002,-79.1996,18.54,82,100,7.49,CA,1741537807
521,torres,-29.3353,-49.7269,74.8,84,55,20.38,BR,1741537811
522,xam nua,20.4197,104.0439,56.32,100,26,2.91,LA,1741537815
523,cidreira,-30.1811,-50.2056,70.25,89,100,18.01,BR,1741537820
524,roberval,48.5168,-72.2324,14.63,52,100,8.05,CA,1741537824
525,mendi,-6.1761,143.6513,58.01,99,100,1.52,PG,1741537832
526,chinsali,-10.5414,32.0816,66.09,95,100,3.29,ZM,1741537836
527,lupane,-18.9315,27.807,71.46,81,81,3.96,ZW,1741537840
528,mazabuka,-15.856,27.748,69.03,89,100,3.02,ZM,1741537845
529,vodnyy,63.5046,53.4095,18.73,93,100,8.19,RU,1741537849
530,pontes e lacerda,-15.2261,-59.3353,82.33,67,99,0.94,BR,1741537853
531,berezovyy,51.6667,135.7,5.65,92,11,5.61,RU,1741537857
532,homer,59.6425,-151.5483,35.76,70,100,5.75,US,1741537861
533,terrace,54.5163,-128.6035,37.31,100,100,2.3,CA,1741537583
534,tadine,-21.55,167.8833,73.96,76,100,13.33,NC,1741537869
535,holualoa,19.6228,-155.9522,66.04,83,0,5.75,US,1741537873
536,dubrajpur,23.8,87.3833,76.8,38,7,5.26,IN,1741537877
537,camayenne,9.535,-13.6878,79.18,68,22,17.83,GN,1741537882
538,proletariy,58.4342,31.7046,35.53,69,61,3.36,RU,1741537886
539,belfast,54.5833,-5.9333,54.48,66,38,12.66,GB,1741537754
540,cacheu,12.2706,-16.1658,103.62,12,84,6.8,GW,1741537894
541,kalymnos,36.95,26.9833,60.33,72,20,6.91,GR,1741537898
542,port saint john's,-31.6229,29.5448,77.63,91,0,13.67,ZA,1741537902
543,pathein,16.7833,94.7333,76.66,67,0,5.59,MM,1741537907
544,broken hill,-31.95,141.4333,73.38,57,0,10.78,AU,1741537911
545,goldsboro,35.3849,-77.9928,48.4,51,100,4.61,US,1741537862
546,becerril,9.7041,-73.2793,98.96,29,36,5.82,CO,1741537919
547,santanyi,39.3546,3.1291,56.23,79,33,19.77,ES,1741537923
548,ballinasloe,53.3275,-8.2194,56.26,76,30,9.37,IE,1741537927
549,kish,26.5578,54.0194,71.87,78,75,4.61,IR,1741537931
550,guiyang,26.5833,106.7167,45.09,93,100,4.47,CN,1741537936
551,alta,69.9689,23.2717,29.46,86,75,3.44,NO,1741537742
552,northam,51.0333,-4.2167,59.81,59,83,5.99,GB,1741537944
553,turkmenbasy,40.0222,52.9552,50.77,71,0,4.61,TM,1741537948
554,vila do maio,15.1333,-23.2167,69.85,75,55,13.76,CV,1741537952
555,saldanha,-33.0117,17.9442,73.45,77,3,7.96,ZA,1741537956
556,oodweyne,9.4092,45.064,81.14,36,23,7.2,SO,1741537960
557,guangyuan,32.442,105.823,50.13,81,95,3.96,CN,1741537965
558,suva,-18.1416,178.4415,76.48,88,40,3.44,FJ,1741537969
559,caburan,5.9181,125.6411,75.33,86,100,9.84,PH,1741537973
560,zouerate,22.7187,-12.4521,78.64,24,0,10.33,MR,1741537977
561,orsa,54.5153,30.4053,45.05,62,88,3.96,BY,1741537981
562,kuching,1.55,110.3333,77.22,97,40,5.01,MY,1741537911
563,bhinmal,25.0,72.25,81.19,18,36,3.8,IN,1741537989
564,mashhad,36.297,59.6062,46.54,93,100,6.91,IR,1741537993
565,koryazhma,61.3143,47.1691,32.23,95,100,6.82,RU,1741537998
566,orapa,-21.2833,25.3667,81.59,34,33,3.74,BW,1741538002
567,ghanzi,-21.5667,21.7833,77.54,38,56,2.57,BW,1741538006
568,lamu,-2.2717,40.902,80.83,82,100,16.98,KE,1741538010
